{
"type": "FeatureCollection",
"crs": { "type": "name", "properties": { "name": "urn:ogc:def:crs:OGC:1.3:CRS84" } },
                                                                                
"features": [
{ "type": "Feature", "properties": { "Store": "21ST AMENDMENT LIQUOR", "Address": "1555 FULTON AVE STE 1", "City": "SACRAMENTO", "State": "CA", "Zip": 95825, "Lat": 38.594558, "Lon": -121.402070 }, "geometry": { "type": "Point", "coordinates": [ -121.40207, 38.594558 ] } },
{ "type": "Feature", "properties": { "Store": "A-1 LIQUOR STORE", "Address": "10821 STUDEBAKER RD", "City": "DOWNEY", "State": "CA", "Zip": 90241, "Lat": 33.935266, "Lon": -118.098139 }, "geometry": { "type": "Point", "coordinates": [ -118.0981393, 33.9352664 ] } },
{ "type": "Feature", "properties": { "Store": "ALPINE MARKET", "Address": "833 W TORRANCE BLVD A", "City": "TORRANCE", "State": "CA", "Zip": 90502, "Lat": 33.842323, "Lon": -118.287623 }, "geometry": { "type": "Point", "coordinates": [ -118.2876228, 33.8423225 ] } },
{ "type": "Feature", "properties": { "Store": "ALPINE VILLAGE INN", "Address": "833 W TORRANCE BLVD A", "City": "TORRANCE", "State": "CA", "Zip": 90502, "Lat": 33.842323, "Lon": -118.287623 }, "geometry": { "type": "Point", "coordinates": [ -118.2876228, 33.8423225 ] } },
{ "type": "Feature", "properties": { "Store": "APPETEZ RESTAURANT", "Address": "825 W ROSEBURG AVE", "City": "MODESTO", "State": "CA", "Zip": 95350, "Lat": 37.660244, "Lon": -121.003634 }, "geometry": { "type": "Point", "coordinates": [ -121.0036341, 37.6602445 ] } },
{ "type": "Feature", "properties": { "Store": "ASH WASHINGTON LIQUOR", "Address": "1162 E WASHINGTON BLVD", "City": "ESCONDIDO", "State": "CA", "Zip": 92025, "Lat": 33.133246, "Lon": -117.068306 }, "geometry": { "type": "Point", "coordinates": [ -117.068306, 33.133246 ] } },
{ "type": "Feature", "properties": { "Store": "BACCHUS BAR & BISTRO", "Address": "6735 QUAIL HILL PKWY", "City": "IRVINE", "State": "CA", "Zip": 92603, "Lat": 33.653402, "Lon": -117.778665 }, "geometry": { "type": "Point", "coordinates": [ -117.778665, 33.6534019 ] } },
{ "type": "Feature", "properties": { "Store": "BAR & GARDEN", "Address": "6142 WASHINGTON BLVD", "City": "CULVER CITY", "State": "CA", "Zip": 90232, "Lat": 34.030822, "Lon": -118.378873 }, "geometry": { "type": "Point", "coordinates": [ -118.3788728, 34.0308221 ] } },
{ "type": "Feature", "properties": { "Store": "BEER HALL THE", "Address": "1 POLK ST", "City": "SAN FRANCISCO", "State": "CA", "Zip": 94102, "Lat": 37.776770, "Lon": -122.418362 }, "geometry": { "type": "Point", "coordinates": [ -122.4183622, 37.7767701 ] } },
{ "type": "Feature", "properties": { "Store": "BEER THIRTY BOTTLE SHOP", "Address": "2504 S MAIN ST", "City": "SOQUEL", "State": "CA", "Zip": 95073, "Lat": 36.983898, "Lon": -121.956360 }, "geometry": { "type": "Point", "coordinates": [ -121.9563601, 36.9838984 ] } },
{ "type": "Feature", "properties": { "Store": "BEERCRAFT", "Address": "5704 COMMERCE BLVD", "City": "ROHNERT PARK", "State": "CA", "Zip": 94928, "Lat": 38.355689, "Lon": -122.712191 }, "geometry": { "type": "Point", "coordinates": [ -122.7121906, 38.3556888 ] } },
{ "type": "Feature", "properties": { "Store": "BEVERLY HILLS BEVERAGE", "Address": "8318 WILSHIRE BLVD", "City": "BEVERLY HILLS", "State": "CA", "Zip": 90211, "Lat": 34.063830, "Lon": -118.372853 }, "geometry": { "type": "Point", "coordinates": [ -118.3728529, 34.0638304 ] } },
{ "type": "Feature", "properties": { "Store": "BIG SEVEN LIQUOR", "Address": "10217 VENICE BLVD", "City": "LOS ANGELES", "State": "CA", "Zip": 90034, "Lat": 34.021660, "Lon": -118.402459 }, "geometry": { "type": "Point", "coordinates": [ -118.4024593, 34.0216599 ] } },
{ "type": "Feature", "properties": { "Store": "BLUE DOG, THE", "Address": "4524 SAUGUS AVE", "City": "SHERMAN OAKS", "State": "CA", "Zip": 91403, "Lat": 34.151922, "Lon": -118.465959 }, "geometry": { "type": "Point", "coordinates": [ -118.4659589, 34.1519215 ] } },
{ "type": "Feature", "properties": { "Store": "BOTTLE HOUSE LIQUOR", "Address": "6018 S NORWALK BLVD", "City": "WHITTIER", "State": "CA", "Zip": 90606, "Lat": 33.989222, "Lon": -118.064348 }, "geometry": { "type": "Point", "coordinates": [ -118.0643478, 33.9892223 ] } },
{ "type": "Feature", "properties": { "Store": "BOTTLE SHOP", "Address": "2087 TORRANCE BLVD", "City": "TORRANCE", "State": "CA", "Zip": 90501, "Lat": 33.836581, "Lon": -118.319071 }, "geometry": { "type": "Point", "coordinates": [ -118.3190714, 33.836581 ] } },
{ "type": "Feature", "properties": { "Store": "BRABANT BAR & CAFE", "Address": "2310 30TH ST", "City": "SAN DIEGO", "State": "CA", "Zip": 92104, "Lat": 32.729979, "Lon": -117.129755 }, "geometry": { "type": "Point", "coordinates": [ -117.1297553, 32.7299786 ] } },
{ "type": "Feature", "properties": { "Store": "BRISTOL FARMS", "Address": "604 FAIR OAKS BLVD", "City": "SOUTH PASADENA", "State": "CA", "Zip": 91030, "Lat": 34.118635, "Lon": -118.150262 }, "geometry": { "type": "Point", "coordinates": [ -118.1502622, 34.1186354 ] } },
{ "type": "Feature", "properties": { "Store": "BRISTOL FARMS #21", "Address": "3105 WILSHIRE BLVD", "City": "SANTA MONICA", "State": "CA", "Zip": 90403, "Lat": 34.040366, "Lon": -118.472628 }, "geometry": { "type": "Point", "coordinates": [ -118.472628, 34.0403665 ] } },
{ "type": "Feature", "properties": { "Store": "BRISTOL FARMS +", "Address": "1570 ROSECRANS #H", "City": "MANHATTAN BEACH", "State": "CA", "Zip": 90266, "Lat": 33.900331, "Lon": -118.384783 }, "geometry": { "type": "Point", "coordinates": [ -118.384783, 33.9003308 ] } },
{ "type": "Feature", "properties": { "Store": "BRISTOL FARMS LA JOLLA", "Address": "8510 GENESEE AVE", "City": "SAN DIEGO", "State": "CA", "Zip": 92122, "Lat": 32.867664, "Lon": -117.215400 }, "geometry": { "type": "Point", "coordinates": [ -117.2154002, 32.867664 ] } },
{ "type": "Feature", "properties": { "Store": "BROADWAY  WINE & SPIRITS", "Address": "1011 BROADWAY", "City": "SANTA MONICA", "State": "CA", "Zip": 90401, "Lat": 34.020023, "Lon": -118.487504 }, "geometry": { "type": "Point", "coordinates": [ -118.48750440000001, 34.0200234 ] } },
{ "type": "Feature", "properties": { "Store": "BURLINGAME LIQUOR", "Address": "1408 BROADWAY", "City": "BURLINGAME", "State": "CA", "Zip": 94010, "Lat": 37.584831, "Lon": -122.366153 }, "geometry": { "type": "Point", "coordinates": [ -122.366153, 37.584831 ] } },
{ "type": "Feature", "properties": { "Store": "CALIFORNIA HEIGHTS MARKE", "Address": "3766 ORANGE AVE", "City": "LONG BEACH", "State": "CA", "Zip": 90807, "Lat": 33.826535, "Lon": -118.176040 }, "geometry": { "type": "Point", "coordinates": [ -118.1760403, 33.826535 ] } },
{ "type": "Feature", "properties": { "Store": "CAROLINA'S", "Address": "12045-47 CHAPMAN AVE", "City": "GARDEN GROVE", "State": "CA", "Zip": 92840, "Lat": 33.789126, "Lon": -117.923120 }, "geometry": { "type": "Point", "coordinates": [ -117.92311960000001, 33.7891256 ] } },
{ "type": "Feature", "properties": { "Store": "CASK AT RINCON", "Address": "101 SPEAR ST STE A04", "City": "SAN FRANCISCO", "State": "CA", "Zip": 94105, "Lat": 37.792550, "Lon": -122.393371 }, "geometry": { "type": "Point", "coordinates": [ -122.39337070000001, 37.7925501 ] } },
{ "type": "Feature", "properties": { "Store": "CATOS ALE HOUSE", "Address": "3891 PIEDMONT AVE", "City": "OAKLAND", "State": "CA", "Zip": 94611, "Lat": 37.824999, "Lon": -122.254585 }, "geometry": { "type": "Point", "coordinates": [ -122.254585, 37.8249993 ] } },
{ "type": "Feature", "properties": { "Store": "CAVALIER LIQUOR", "Address": "4068 TYLER ST", "City": "RIVERSIDE", "State": "CA", "Zip": 92503, "Lat": 33.916558, "Lon": -117.465636 }, "geometry": { "type": "Point", "coordinates": [ -117.465636, 33.916558 ] } },
{ "type": "Feature", "properties": { "Store": "CHEESE PLUS", "Address": "2001 POLK ST", "City": "SAN FRANCISCO", "State": "CA", "Zip": 94109, "Lat": 37.795228, "Lon": -122.421860 }, "geometry": { "type": "Point", "coordinates": [ -122.4218595, 37.7952282 ] } },
{ "type": "Feature", "properties": { "Store": "CHOMP & SWIG", "Address": "1541 CELEMNT ST", "City": "SAN FRANCISCO", "State": "CA", "Zip": 94118, "Lat": 37.782259, "Lon": -122.475874 }, "geometry": { "type": "Point", "coordinates": [ -122.4758743, 37.7822593 ] } },
{ "type": "Feature", "properties": { "Store": "CIRCUS LIQUOR", "Address": "5600 VINELAND AVE", "City": "NORTH HOLLYWOOD", "State": "CA", "Zip": 91601, "Lat": 34.172420, "Lon": -118.369954 }, "geometry": { "type": "Point", "coordinates": [ -118.369954, 34.17242 ] } },
{ "type": "Feature", "properties": { "Store": "COFFEE TABLE, THE", "Address": "1958 COLORADO BLVD", "City": "LOS ANGELES", "State": "CA", "Zip": 90041, "Lat": 34.138936, "Lon": -118.210469 }, "geometry": { "type": "Point", "coordinates": [ -118.2104686, 34.138936 ] } },
{ "type": "Feature", "properties": { "Store": "COIT LIQUORS", "Address": "585 COLUMBUS AVE", "City": "SAN FRANCISCO", "State": "CA", "Zip": 94133, "Lat": 37.800142, "Lon": -122.410316 }, "geometry": { "type": "Point", "coordinates": [ -122.41031580000001, 37.8001424 ] } },
{ "type": "Feature", "properties": { "Store": "COMMONWEALTH", "Address": "222 S GLENOAKS BLVD", "City": "BURBANK", "State": "CA", "Zip": 91502, "Lat": 34.182276, "Lon": -118.304576 }, "geometry": { "type": "Point", "coordinates": [ -118.3045755, 34.1822764 ] } },
{ "type": "Feature", "properties": { "Store": "COMMONWEALTH", "Address": "1022 11TH ST", "City": "MODESTO", "State": "CA", "Zip": 95354, "Lat": 37.641967, "Lon": -120.999812 }, "geometry": { "type": "Point", "coordinates": [ -120.9998116, 37.6419666 ] } },
{ "type": "Feature", "properties": { "Store": "COMPTON HOLIDAY MARKET", "Address": "4065 MCKINLEY BLVD", "City": "SACRAMENTO", "State": "CA", "Zip": 95819, "Lat": 38.578693, "Lon": -121.447618 }, "geometry": { "type": "Point", "coordinates": [ -121.4476177, 38.5786932 ] } },
{ "type": "Feature", "properties": { "Store": "COOL WATER'S", "Address": "1110 N GAFFEY ST UNIT H", "City": "SAN PEDRO", "State": "CA", "Zip": 90731, "Lat": 33.754447, "Lon": -118.291946 }, "geometry": { "type": "Point", "coordinates": [ -118.291946, 33.754447 ] } },
{ "type": "Feature", "properties": { "Store": "CORK N BOTTLE LIQUORS", "Address": "5200 MOWRY AVE.", "City": "FREMONT", "State": "CA", "Zip": 94538, "Lat": 37.533195, "Lon": -121.999194 }, "geometry": { "type": "Point", "coordinates": [ -121.9991938, 37.5331951 ] } },
{ "type": "Feature", "properties": { "Store": "CORNER LIQUOR", "Address": "2600 OCEANSIDE BLVD", "City": "OCEANSIDE", "State": "CA", "Zip": 92054, "Lat": 33.200945, "Lon": -117.344005 }, "geometry": { "type": "Point", "coordinates": [ -117.3440052, 33.200945 ] } },
{ "type": "Feature", "properties": { "Store": "COST PLUS #364", "Address": "2910 TAPO CANYON RD", "City": "SIMI VALLEY", "State": "CA", "Zip": 93063, "Lat": 34.286845, "Lon": -118.717078 }, "geometry": { "type": "Point", "coordinates": [ -118.717078, 34.2868446 ] } },
{ "type": "Feature", "properties": { "Store": "COUNTRY CLUB DELI & LIQU", "Address": "3737 COLUMBUS ST.", "City": "BAKERSFIELD", "State": "CA", "Zip": 93306, "Lat": 35.399938, "Lon": -118.951411 }, "geometry": { "type": "Point", "coordinates": [ -118.9514107, 35.399938 ] } },
{ "type": "Feature", "properties": { "Store": "CRAFT BEER & WINE, LLC", "Address": "2526 SANTA CLARA AVE A", "City": "ALAMEDA", "State": "CA", "Zip": 94501, "Lat": 37.763659, "Lon": -122.239147 }, "geometry": { "type": "Point", "coordinates": [ -122.23914670000001, 37.7636589 ] } },
{ "type": "Feature", "properties": { "Store": "DAVY JONES LIQUOR LOCKER", "Address": "63 NAVY ST", "City": "VENICE", "State": "CA", "Zip": 90291, "Lat": 33.997109, "Lon": -118.479916 }, "geometry": { "type": "Point", "coordinates": [ -118.479916, 33.997109 ] } },
{ "type": "Feature", "properties": { "Store": "DOWNER SQUARE BOTTLE SHO", "Address": "402 BLOSSOM HILL RD", "City": "SAN JOSE", "State": "CA", "Zip": 95123, "Lat": 37.251290, "Lon": -121.828568 }, "geometry": { "type": "Point", "coordinates": [ -121.8285679, 37.2512903 ] } },
{ "type": "Feature", "properties": { "Store": "DOWNEY LIQUOR", "Address": "7617 E FIRESTONE BLVD", "City": "DOWNEY", "State": "CA", "Zip": 90241, "Lat": 33.946741, "Lon": -118.144556 }, "geometry": { "type": "Point", "coordinates": [ -118.1445556, 33.9467414 ] } },
{ "type": "Feature", "properties": { "Store": "DRAEGERS #3   BEER", "Address": "222 E FOURTH AVE", "City": "SAN MATEO", "State": "CA", "Zip": 94401, "Lat": 37.564351, "Lon": -122.321754 }, "geometry": { "type": "Point", "coordinates": [ -122.3217543, 37.5643513 ] } },
{ "type": "Feature", "properties": { "Store": "EDDIES CONVENIENCE STORE", "Address": "2444 E 4TH ST", "City": "LONG BEACH", "State": "CA", "Zip": 90814, "Lat": 33.771564, "Lon": -118.161940 }, "geometry": { "type": "Point", "coordinates": [ -118.1619397, 33.7715636 ] } },
{ "type": "Feature", "properties": { "Store": "EL RANCHO MARKET PLACE", "Address": "555 FIVE CITIES DRIVE", "City": "PISMO BEACH", "State": "CA", "Zip": 93449, "Lat": 35.135121, "Lon": -120.623825 }, "geometry": { "type": "Point", "coordinates": [ -120.623825, 35.135121 ] } },
{ "type": "Feature", "properties": { "Store": "EUREKA BURGER", "Address": "7775 N PALM AVE STE 106", "City": "FRESNO", "State": "CA", "Zip": 93711, "Lat": 36.850384, "Lon": -119.806363 }, "geometry": { "type": "Point", "coordinates": [ -119.806363, 36.850384 ] } },
{ "type": "Feature", "properties": { "Store": "FARMER JOES MARKETPLACE", "Address": "3420 FRUITVALE AVE", "City": "OAKLAND", "State": "CA", "Zip": 94602, "Lat": 37.799225, "Lon": -122.216578 }, "geometry": { "type": "Point", "coordinates": [ -122.2165775, 37.7992247 ] } },
{ "type": "Feature", "properties": { "Store": "GELSONS #003", "Address": "4738 LAUREL CANYON BLVD", "City": "NORTH HOLLYWOOD", "State": "CA", "Zip": 91607, "Lat": 34.156217, "Lon": -118.395977 }, "geometry": { "type": "Point", "coordinates": [ -118.39597740000001, 34.1562168 ] } },
{ "type": "Feature", "properties": { "Store": "GELSONS #004", "Address": "10250 SANTA MONICA BLVD", "City": "LOS ANGELES", "State": "CA", "Zip": 90067, "Lat": 34.059633, "Lon": -118.419430 }, "geometry": { "type": "Point", "coordinates": [ -118.41942950000001, 34.0596331 ] } },
{ "type": "Feature", "properties": { "Store": "GELSONS #008", "Address": "2734 TOWNGATE RD", "City": "WESTLAKE VILLAGE", "State": "CA", "Zip": 91361, "Lat": 34.152571, "Lon": -118.825081 }, "geometry": { "type": "Point", "coordinates": [ -118.825081, 34.1525706 ] } },
{ "type": "Feature", "properties": { "Store": "GELSONS #010", "Address": "13455 MAXELLA AVE", "City": "MARINA DEL REY", "State": "CA", "Zip": 90292, "Lat": 33.986760, "Lon": -118.441659 }, "geometry": { "type": "Point", "coordinates": [ -118.44165940000001, 33.9867604 ] } },
{ "type": "Feature", "properties": { "Store": "GELSONS #011", "Address": "22277 W MULHOLAND HWY", "City": "CALABASAS", "State": "CA", "Zip": 91302, "Lat": 34.147381, "Lon": -118.613373 }, "geometry": { "type": "Point", "coordinates": [ -118.61337260000001, 34.1473813 ] } },
{ "type": "Feature", "properties": { "Store": "GELSONS #016", "Address": "4520 VAN NUYS BLVD", "City": "SHERMAN OAKS", "State": "CA", "Zip": 91403, "Lat": 34.153853, "Lon": -118.447624 }, "geometry": { "type": "Point", "coordinates": [ -118.4476241, 34.1538528 ] } },
{ "type": "Feature", "properties": { "Store": "GELSONS #017", "Address": "3305 STATE ST", "City": "SANTA BARBARA", "State": "CA", "Zip": 93105, "Lat": 34.440317, "Lon": -119.734501 }, "geometry": { "type": "Point", "coordinates": [ -119.7345009, 34.4403171 ] } },
{ "type": "Feature", "properties": { "Store": "GELSONS #018", "Address": "5521 ALTON PKWY", "City": "IRVINE", "State": "CA", "Zip": 92618, "Lat": 33.670371, "Lon": -117.786865 }, "geometry": { "type": "Point", "coordinates": [ -117.7868648, 33.6703711 ] } },
{ "type": "Feature", "properties": { "Store": "GELSONS #021", "Address": "6255 E 2ND ST.", "City": "LONG BEACH", "State": "CA", "Zip": 90803, "Lat": 33.758506, "Lon": -118.112957 }, "geometry": { "type": "Point", "coordinates": [ -118.1129574, 33.7585062 ] } },
{ "type": "Feature", "properties": { "Store": "GELSONS #022", "Address": "2725 HYPERION AVE", "City": "LOS ANGELES", "State": "CA", "Zip": 90027, "Lat": 34.107964, "Lon": -118.272608 }, "geometry": { "type": "Point", "coordinates": [ -118.2726079, 34.1079642 ] } },
{ "type": "Feature", "properties": { "Store": "GELSONS #114", "Address": "5877 FRANKLIN AVE", "City": "HOLLYWOOD", "State": "CA", "Zip": 90028, "Lat": 34.105296, "Lon": -118.317510 }, "geometry": { "type": "Point", "coordinates": [ -118.3175098, 34.1052961 ] } },
{ "type": "Feature", "properties": { "Store": "GELSONS MARKET #023", "Address": "635 FOOTHILL BLVD", "City": "LA CANADA FLINTR", "State": "CA", "Zip": 91011, "Lat": 34.201686, "Lon": -118.192300 }, "geometry": { "type": "Point", "coordinates": [ -118.1923003, 34.2016859 ] } },
{ "type": "Feature", "properties": { "Store": "GERRARD'S MARKET", "Address": "705 W CYPRESS ST", "City": "REDLANDS", "State": "CA", "Zip": 92373, "Lat": 34.042657, "Lon": -117.183894 }, "geometry": { "type": "Point", "coordinates": [ -117.183894, 34.042657 ] } },
{ "type": "Feature", "properties": { "Store": "GIOVANNI'S PRODUCE", "Address": "1600 LIBERTY ST", "City": "EL CERRITO", "State": "CA", "Zip": 94530, "Lat": 37.921875, "Lon": -122.312428 }, "geometry": { "type": "Point", "coordinates": [ -122.312428, 37.921875 ] } },
{ "type": "Feature", "properties": { "Store": "GOLDEN RULE LIQUOR", "Address": "7753 SANTA MONICA BLVD", "City": "WEST HOLLYWOOD", "State": "CA", "Zip": 90046, "Lat": 34.091026, "Lon": -118.358360 }, "geometry": { "type": "Point", "coordinates": [ -118.3583599, 34.0910263 ] } },
{ "type": "Feature", "properties": { "Store": "GREAT MAPLE", "Address": "1133 NEWPORT CENTER DR", "City": "NEWPORT BEACH", "State": "CA", "Zip": 92660, "Lat": 33.614930, "Lon": -117.878085 }, "geometry": { "type": "Point", "coordinates": [ -117.878085, 33.6149295 ] } },
{ "type": "Feature", "properties": { "Store": "HEALTHY SPIRITS", "Address": "2299 15TH ST", "City": "SAN FRANCISCO", "State": "CA", "Zip": 94114, "Lat": 37.765515, "Lon": -122.435253 }, "geometry": { "type": "Point", "coordinates": [ -122.4352526, 37.765515 ] } },
{ "type": "Feature", "properties": { "Store": "HEALTHY SPIRITS", "Address": "1042 CLEMENT ST", "City": "SAN FRANCISCO", "State": "CA", "Zip": 94118, "Lat": 37.782840, "Lon": -122.470723 }, "geometry": { "type": "Point", "coordinates": [ -122.4707232, 37.7828402 ] } },
{ "type": "Feature", "properties": { "Store": "HI TIME CELLARS", "Address": "250 OGLE ST STE F", "City": "COSTA MESA", "State": "CA", "Zip": 92627, "Lat": 33.632942, "Lon": -117.917803 }, "geometry": { "type": "Point", "coordinates": [ -117.917803, 33.632942 ] } },
{ "type": "Feature", "properties": { "Store": "HIS NIBS LIQUOR", "Address": "2501 E BALL RD", "City": "ANAHEIM", "State": "CA", "Zip": 92806, "Lat": 33.818528, "Lon": -117.880242 }, "geometry": { "type": "Point", "coordinates": [ -117.8802418, 33.818528 ] } },
{ "type": "Feature", "properties": { "Store": "HOPSCOTCH TAVERN", "Address": "136 E COMMONWEALTH AVE", "City": "FULLERTON", "State": "CA", "Zip": 92832, "Lat": 33.870155, "Lon": -117.922956 }, "geometry": { "type": "Point", "coordinates": [ -117.9229558, 33.8701548 ] } },
{ "type": "Feature", "properties": { "Store": "HUMAN RESOURCES", "Address": "213 W 7TH ST", "City": "LOS ANGELES", "State": "CA", "Zip": 90014, "Lat": 34.044900, "Lon": -118.252635 }, "geometry": { "type": "Point", "coordinates": [ -118.25263510000001, 34.0449002 ] } },
{ "type": "Feature", "properties": { "Store": "KELLY'S LIQUORS", "Address": "498 N 4TH ST", "City": "SAN JOSE", "State": "CA", "Zip": 95112, "Lat": 37.346309, "Lon": -121.893452 }, "geometry": { "type": "Point", "coordinates": [ -121.8934515, 37.346309 ] } },
{ "type": "Feature", "properties": { "Store": "LA TRAPPE + +", "Address": "800 GREENWICH", "City": "SAN FRANCISCO", "State": "CA", "Zip": 94133, "Lat": 37.802004, "Lon": -122.413088 }, "geometry": { "type": "Point", "coordinates": [ -122.41308840000001, 37.8020043 ] } },
{ "type": "Feature", "properties": { "Store": "LA TROPICANA MARKET", "Address": "5200 MONTE VISTA", "City": "LOS ANGELES", "State": "CA", "Zip": 90042, "Lat": 34.108412, "Lon": -118.200814 }, "geometry": { "type": "Point", "coordinates": [ -118.200814, 34.108412 ] } },
{ "type": "Feature", "properties": { "Store": "LIQUID BREAD", "Address": "379 E CAMPBELL AVE", "City": "CAMPBELL", "State": "CA", "Zip": 95008, "Lat": 37.287205, "Lon": -121.943244 }, "geometry": { "type": "Point", "coordinates": [ -121.9432443, 37.2872053 ] } },
{ "type": "Feature", "properties": { "Store": "LIQUOR BARN", "Address": "2627 BECHELLI LN", "City": "REDDING", "State": "CA", "Zip": 96002, "Lat": 40.569280, "Lon": -122.361336 }, "geometry": { "type": "Point", "coordinates": [ -122.3613364, 40.5692802 ] } },
{ "type": "Feature", "properties": { "Store": "LIQUOR LAND", "Address": "8959 MIRA MESA BLVD", "City": "SAN DIEGO", "State": "CA", "Zip": 92126, "Lat": 32.913659, "Lon": -117.131022 }, "geometry": { "type": "Point", "coordinates": [ -117.131022, 32.913659 ] } },
{ "type": "Feature", "properties": { "Store": "LIQUOR MART", "Address": "13583 E WHITTIER BLVD", "City": "WHITTIER", "State": "CA", "Zip": 90605, "Lat": 33.961536, "Lon": -118.029474 }, "geometry": { "type": "Point", "coordinates": [ -118.029474, 33.9615357 ] } },
{ "type": "Feature", "properties": { "Store": "LIQUOR WAREHOUSE", "Address": "9092 ADAMS AVE", "City": "HUNTINGTON BEACH", "State": "CA", "Zip": 92649, "Lat": 33.672159, "Lon": -117.969877 }, "geometry": { "type": "Point", "coordinates": [ -117.9698769, 33.6721586 ] } },
{ "type": "Feature", "properties": { "Store": "LUNA VINE WINE BAR", "Address": "3206 W MAGNOLIA BLVD", "City": "BURBANK", "State": "CA", "Zip": 91505, "Lat": 34.169273, "Lon": -118.342142 }, "geometry": { "type": "Point", "coordinates": [ -118.3421421, 34.1692728 ] } },
{ "type": "Feature", "properties": { "Store": "MAIDEN PUBLICK HOUSE", "Address": "HWY 1  VILLAGE CNTR", "City": "BIG SUR", "State": "CA", "Zip": 93920, "Lat": 36.269693, "Lon": -121.807882 }, "geometry": { "type": "Point", "coordinates": [ -121.8078823, 36.2696933 ] } },
{ "type": "Feature", "properties": { "Store": "MALIBU LIQUOR", "Address": "4937 LAS VIRGENES RD", "City": "CALABASAS", "State": "CA", "Zip": 91302, "Lat": 34.147182, "Lon": -118.698384 }, "geometry": { "type": "Point", "coordinates": [ -118.6983836, 34.1471817 ] } },
{ "type": "Feature", "properties": { "Store": "MARINA DEL REY LIQUOR MA", "Address": "753 W WASHINGTON ST", "City": "VENICE", "State": "CA", "Zip": 90291, "Lat": 33.987710, "Lon": -118.453320 }, "geometry": { "type": "Point", "coordinates": [ -118.4533199, 33.9877105 ] } },
{ "type": "Feature", "properties": { "Store": "MISSION LIQUORS", "Address": "2335 MISSION ST", "City": "SANTA CRUZ", "State": "CA", "Zip": 95060, "Lat": 36.960982, "Lon": -122.047513 }, "geometry": { "type": "Point", "coordinates": [ -122.0475135, 36.9609817 ] } },
{ "type": "Feature", "properties": { "Store": "MONTEREY DELI", "Address": "499 MONTEREY BLVD", "City": "SAN FRANCISCO", "State": "CA", "Zip": 94127, "Lat": 37.731365, "Lon": -122.446455 }, "geometry": { "type": "Point", "coordinates": [ -122.4464548, 37.731365 ] } },
{ "type": "Feature", "properties": { "Store": "MR S LIQUOR MART", "Address": "804 S ANAHEIM BLVD", "City": "ANAHEIM", "State": "CA", "Zip": 92805, "Lat": 33.826653, "Lon": -117.910414 }, "geometry": { "type": "Point", "coordinates": [ -117.9104141, 33.8266535 ] } },
{ "type": "Feature", "properties": { "Store": "NAPA CABS", "Address": "14702 CENTRAL AVE", "City": "CHINO", "State": "CA", "Zip": 91710, "Lat": 33.986271, "Lon": -117.689570 }, "geometry": { "type": "Point", "coordinates": [ -117.6895696, 33.9862711 ] } },
{ "type": "Feature", "properties": { "Store": "NEW MINT, THE", "Address": "6010 W PICO BLVD", "City": "LOS ANGELES", "State": "CA", "Zip": 90035, "Lat": 34.052259, "Lon": -118.371633 }, "geometry": { "type": "Point", "coordinates": [ -118.371633, 34.0522586 ] } },
{ "type": "Feature", "properties": { "Store": "NEW WEST CATERS", "Address": "181 INDUSTRIAL WY", "City": "BUELLTON", "State": "CA", "Zip": 93427, "Lat": 34.614134, "Lon": -120.199907 }, "geometry": { "type": "Point", "coordinates": [ -120.1999067, 34.6141345 ] } },
{ "type": "Feature", "properties": { "Store": "NEWPORT PIZZ & ALE HOUSE", "Address": "5050 NEWPORT AVE", "City": "SAN DIEGO", "State": "CA", "Zip": 92107, "Lat": 32.747437, "Lon": -117.251960 }, "geometry": { "type": "Point", "coordinates": [ -117.2519602, 32.7474369 ] } },
{ "type": "Feature", "properties": { "Store": "NIDO", "Address": "70 4TH ST", "City": "OAKLAND", "State": "CA", "Zip": 94607, "Lat": 37.794425, "Lon": -122.266285 }, "geometry": { "type": "Point", "coordinates": [ -122.266285, 37.7944249 ] } },
{ "type": "Feature", "properties": { "Store": "NOJO RESTAURANT", "Address": "231 FRANKLIN ST", "City": "SAN FRANCISCO", "State": "CA", "Zip": 94102, "Lat": 37.776689, "Lon": -122.421478 }, "geometry": { "type": "Point", "coordinates": [ -122.421478, 37.7766894 ] } },
{ "type": "Feature", "properties": { "Store": "NORM'S MARKET", "Address": "287 STAGE ROAD", "City": "PESCADERO", "State": "CA", "Zip": 94060, "Lat": 37.253367, "Lon": -122.383354 }, "geometry": { "type": "Point", "coordinates": [ -122.3833538, 37.2533668 ] } },
{ "type": "Feature", "properties": { "Store": "OLD TOWNE PUB", "Address": "66 N FAIR OAKS AVE", "City": "PASADENA", "State": "CA", "Zip": 91103, "Lat": 34.146952, "Lon": -118.150488 }, "geometry": { "type": "Point", "coordinates": [ -118.1504884, 34.146952 ] } },
{ "type": "Feature", "properties": { "Store": "ORIGINAL GRAVITY PUBLIC", "Address": "66 S 1ST ST", "City": "SAN JOSE", "State": "CA", "Zip": 95113, "Lat": 37.335124, "Lon": -121.889528 }, "geometry": { "type": "Point", "coordinates": [ -121.8895284, 37.3351243 ] } },
{ "type": "Feature", "properties": { "Store": "PAPA LIQUOR", "Address": "3244 E COAST HWY", "City": "CORONA DEL MAR", "State": "CA", "Zip": 92625, "Lat": 33.596745, "Lon": -117.870767 }, "geometry": { "type": "Point", "coordinates": [ -117.87076690000001, 33.5967445 ] } },
{ "type": "Feature", "properties": { "Store": "PARISH PUBLICK HOUSE", "Address": "841 ALMAR AVE A", "City": "SANTA CRUZ", "State": "CA", "Zip": 95060, "Lat": 36.961136, "Lon": -122.043775 }, "geometry": { "type": "Point", "coordinates": [ -122.0437752, 36.9611359 ] } },
{ "type": "Feature", "properties": { "Store": "PENNY LANE PUB & GRILL", "Address": "1001 W SAN MARCOS BLVD S", "City": "SAN MARCOS", "State": "CA", "Zip": 92078, "Lat": 33.133853, "Lon": -117.188047 }, "geometry": { "type": "Point", "coordinates": [ -117.18804710000001, 33.1338527 ] } },
{ "type": "Feature", "properties": { "Store": "POST NO BILLS CRAFT BEER", "Address": "600 ORTIZ AVE STE 101", "City": "SAND CITY", "State": "CA", "Zip": 93955, "Lat": 36.611865, "Lon": -121.850454 }, "geometry": { "type": "Point", "coordinates": [ -121.8504537, 36.6118648 ] } },
{ "type": "Feature", "properties": { "Store": "QUAKER STATE LIQUOR + +", "Address": "6901 MELROSE AVE", "City": "LOS ANGELES", "State": "CA", "Zip": 90038, "Lat": 34.083628, "Lon": -118.341732 }, "geometry": { "type": "Point", "coordinates": [ -118.34173180000001, 34.0836277 ] } },
{ "type": "Feature", "properties": { "Store": "RAMIREZ LIQUOR", "Address": "9419 SLAUSON AVE.", "City": "PICO RIVERA", "State": "CA", "Zip": 90660, "Lat": 33.968666, "Lon": -118.096291 }, "geometry": { "type": "Point", "coordinates": [ -118.0962907, 33.9686657 ] } },
{ "type": "Feature", "properties": { "Store": "RAMIREZ LIQUOR", "Address": "2765 E OLYMPIC BLVD", "City": "LOS ANGELES", "State": "CA", "Zip": 90023, "Lat": 34.023793, "Lon": -118.218091 }, "geometry": { "type": "Point", "coordinates": [ -118.21809090000001, 34.0237934 ] } },
{ "type": "Feature", "properties": { "Store": "RANCH TOWN LIQUOR & DELI", "Address": "1112 N SAN DIMAS AVE", "City": "SAN DIMAS", "State": "CA", "Zip": 91773, "Lat": 34.121933, "Lon": -117.806803 }, "geometry": { "type": "Point", "coordinates": [ -117.8068025, 34.121933 ] } },
{ "type": "Feature", "properties": { "Store": "SAN DIMAS WINE SHOP", "Address": "225 W BONITA AVE", "City": "SAN DIMAS", "State": "CA", "Zip": 91773, "Lat": 34.106850, "Lon": -117.810286 }, "geometry": { "type": "Point", "coordinates": [ -117.8102863, 34.1068503 ] } },
{ "type": "Feature", "properties": { "Store": "SIMONS MARKET", "Address": "511 ROSE AVE", "City": "VENICE", "State": "CA", "Zip": 90291, "Lat": 33.998345, "Lon": -118.473860 }, "geometry": { "type": "Point", "coordinates": [ -118.4738595, 33.9983451 ] } },
{ "type": "Feature", "properties": { "Store": "SMOKE CITY MARKET", "Address": "5242 VAN NUYS BLVD", "City": "SHERMAN OAKS", "State": "CA", "Zip": 91401, "Lat": 34.166056, "Lon": -118.448321 }, "geometry": { "type": "Point", "coordinates": [ -118.448321, 34.166056 ] } },
{ "type": "Feature", "properties": { "Store": "SOUSA DISCOUNT LIQ", "Address": "1584 WASHINGTON BLVD", "City": "FREMONT", "State": "CA", "Zip": 94539, "Lat": 37.530752, "Lon": -121.937227 }, "geometry": { "type": "Point", "coordinates": [ -121.9372267, 37.530752 ] } },
{ "type": "Feature", "properties": { "Store": "SPOKEASY PUBLIC HOUSE", "Address": "1472 N VAN NESS AVE", "City": "FRESNO", "State": "CA", "Zip": 93728, "Lat": 36.762579, "Lon": -119.798818 }, "geometry": { "type": "Point", "coordinates": [ -119.7988184, 36.7625789 ] } },
{ "type": "Feature", "properties": { "Store": "STAR MARKET", "Address": "10502 MISSION GORGE RD #", "City": "SANTEE", "State": "CA", "Zip": 92071, "Lat": 32.838835, "Lon": -116.968667 }, "geometry": { "type": "Point", "coordinates": [ -116.96866730000001, 32.8388349 ] } },
{ "type": "Feature", "properties": { "Store": "STEVES LIQUOR", "Address": "1232 SEPULVEDA BLVD", "City": "HARBOR CITY", "State": "CA", "Zip": 90710, "Lat": 33.812713, "Lon": -118.297388 }, "geometry": { "type": "Point", "coordinates": [ -118.29738810000001, 33.8127131 ] } },
{ "type": "Feature", "properties": { "Store": "SUMMIT STORE", "Address": "24197 SUMMIT RD", "City": "LOS GATOS", "State": "CA", "Zip": 95030, "Lat": 37.120366, "Lon": -121.928710 }, "geometry": { "type": "Point", "coordinates": [ -121.9287095, 37.1203656 ] } },
{ "type": "Feature", "properties": { "Store": "SYCAMORE, THE", "Address": "2140 MISSION ST", "City": "SAN FRANCISCO", "State": "CA", "Zip": 94110, "Lat": 37.762763, "Lon": -122.419799 }, "geometry": { "type": "Point", "coordinates": [ -122.4197987, 37.7627625 ] } },
{ "type": "Feature", "properties": { "Store": "THE WILLOWS MARKET", "Address": "60 MIDDLEFIELD RD", "City": "MENLO PARK", "State": "CA", "Zip": 94025, "Lat": 37.454504, "Lon": -122.163262 }, "geometry": { "type": "Point", "coordinates": [ -122.16326170000001, 37.4545045 ] } },
{ "type": "Feature", "properties": { "Store": "THREE SHEETS CRAFT BEER", "Address": "71046 VILLAGE PKWY", "City": "DUBLIN", "State": "CA", "Zip": 94568, "Lat": 37.714861, "Lon": -121.926896 }, "geometry": { "type": "Point", "coordinates": [ -121.92689590000001, 37.7148606 ] } },
{ "type": "Feature", "properties": { "Store": "TONYS MARKET", "Address": "2751 24TH STREET", "City": "SAN FRANCISCO", "State": "CA", "Zip": 94110, "Lat": 37.752733, "Lon": -122.407475 }, "geometry": { "type": "Point", "coordinates": [ -122.4074748, 37.7527332 ] } },
{ "type": "Feature", "properties": { "Store": "TORONADO", "Address": "547 HAIGHT ST", "City": "SAN FRANCISCO", "State": "CA", "Zip": 94117, "Lat": 37.771878, "Lon": -122.431212 }, "geometry": { "type": "Point", "coordinates": [ -122.43121240000001, 37.771878 ] } },
{ "type": "Feature", "properties": { "Store": "TOTAL WINE & MORE #1101", "Address": "5791 FIVE STAR DR", "City": "ROSEVILLE", "State": "CA", "Zip": 95678, "Lat": 38.781679, "Lon": -121.271666 }, "geometry": { "type": "Point", "coordinates": [ -121.2716661, 38.7816789 ] } },
{ "type": "Feature", "properties": { "Store": "TOTAL WINE & MORE #1102", "Address": "19336 NORDHOFF ST", "City": "NORTHRIDGE", "State": "CA", "Zip": 91324, "Lat": 34.234345, "Lon": -118.554945 }, "geometry": { "type": "Point", "coordinates": [ -118.5549446, 34.2343448 ] } },
{ "type": "Feature", "properties": { "Store": "TOTAL WINE & MORE #1103", "Address": "2952 EL CAMINO REAL", "City": "TUSTIN", "State": "CA", "Zip": 92782, "Lat": 33.724489, "Lon": -117.794461 }, "geometry": { "type": "Point", "coordinates": [ -117.7944605, 33.7244891 ] } },
{ "type": "Feature", "properties": { "Store": "TOTAL WINE & MORE #1104", "Address": "8201 DAY CREEK BLVD", "City": "RANCHO CUCAMONGA", "State": "CA", "Zip": 91739, "Lat": 34.104606, "Lon": -117.536326 }, "geometry": { "type": "Point", "coordinates": [ -117.536326, 34.1046057 ] } },
{ "type": "Feature", "properties": { "Store": "TOTAL WINE & MORE #1105", "Address": "471 S ASSOCIATED RD", "City": "BREA", "State": "CA", "Zip": 92821, "Lat": 33.912070, "Lon": -117.882265 }, "geometry": { "type": "Point", "coordinates": [ -117.8822647, 33.9120696 ] } },
{ "type": "Feature", "properties": { "Store": "TOTAL WINE & MORE #1106", "Address": "1505 HAWTHORNE BLVD", "City": "REDONDO BEACH", "State": "CA", "Zip": 90278, "Lat": 33.867843, "Lon": -118.353689 }, "geometry": { "type": "Point", "coordinates": [ -118.353689, 33.8678431 ] } },
{ "type": "Feature", "properties": { "Store": "TOTAL WINE & MORE #1107", "Address": "394 N MOORPARK RD.", "City": "THOUSAND OAKS", "State": "CA", "Zip": 91360, "Lat": 34.183026, "Lon": -118.874206 }, "geometry": { "type": "Point", "coordinates": [ -118.8742063, 34.1830259 ] } },
{ "type": "Feature", "properties": { "Store": "TOTAL WINE & MORE #1108", "Address": "2121 ARDEN WAY", "City": "SACRAMENTO", "State": "CA", "Zip": 95825, "Lat": 38.596973, "Lon": -121.416742 }, "geometry": { "type": "Point", "coordinates": [ -121.4167421, 38.5969726 ] } },
{ "type": "Feature", "properties": { "Store": "TOTAL WINE & MORE #1110", "Address": "24001 EL TORO RD #B", "City": "LAGUNA HILLS", "State": "CA", "Zip": 92653, "Lat": 33.614469, "Lon": -117.710090 }, "geometry": { "type": "Point", "coordinates": [ -117.7100896, 33.6144688 ] } },
{ "type": "Feature", "properties": { "Store": "TOTAL WINE & MORE #1111", "Address": "2765 E BIDWELL ST", "City": "FOLSOM", "State": "CA", "Zip": 95630, "Lat": 38.654716, "Lon": -121.124690 }, "geometry": { "type": "Point", "coordinates": [ -121.1246896, 38.6547164 ] } },
{ "type": "Feature", "properties": { "Store": "TOTAL WINE & MORE #1112", "Address": "72339 HIGHWAY 111 # 339", "City": "PALM DESERT", "State": "CA", "Zip": 92260, "Lat": 33.728037, "Lon": -116.404370 }, "geometry": { "type": "Point", "coordinates": [ -116.4043702, 33.7280372 ] } },
{ "type": "Feature", "properties": { "Store": "TUSTIN WINE & SPIRITS", "Address": "14211 RED HILL AVE", "City": "TUSTIN", "State": "CA", "Zip": 92780, "Lat": 33.731121, "Lon": -117.817846 }, "geometry": { "type": "Point", "coordinates": [ -117.8178463, 33.7311209 ] } },
{ "type": "Feature", "properties": { "Store": "US CLASS VI LIQUOR STORE", "Address": "BLDG #650", "City": "TRAVIS AFB", "State": "CA", "Zip": 94535, "Lat": 38.269787, "Lon": -121.963750 }, "geometry": { "type": "Point", "coordinates": [ -121.9637503, 38.269787 ] } },
{ "type": "Feature", "properties": { "Store": "VENDOME #2 STUDIO CITY +", "Address": "11555 VENTURA BLVD", "City": "STUDIO CITY", "State": "CA", "Zip": 91604, "Lat": 34.140308, "Lon": -118.383593 }, "geometry": { "type": "Point", "coordinates": [ -118.3835926, 34.1403077 ] } },
{ "type": "Feature", "properties": { "Store": "VENDOME #39 +", "Address": "10600 RIVERSIDE DR", "City": "TOLUCA LAKE", "State": "CA", "Zip": 91602, "Lat": 34.151874, "Lon": -118.361955 }, "geometry": { "type": "Point", "coordinates": [ -118.361955, 34.151874 ] } },
{ "type": "Feature", "properties": { "Store": "VINI", "Address": "611 2ND ST", "City": "DAVIS", "State": "CA", "Zip": 95616, "Lat": 38.543433, "Lon": -121.740658 }, "geometry": { "type": "Point", "coordinates": [ -121.7406582, 38.5434333 ] } },
{ "type": "Feature", "properties": { "Store": "WADES WINE BAR", "Address": "30961 AGOURA RD #319", "City": "WESTLAKE VILLAGE", "State": "CA", "Zip": 91361, "Lat": 34.145574, "Lon": -118.795955 }, "geometry": { "type": "Point", "coordinates": [ -118.7959554, 34.1455738 ] } },
{ "type": "Feature", "properties": { "Store": "WHOLE FOODS CAMPBELL  #1", "Address": "1690 SOUTH BASCOM", "City": "CAMPBELL", "State": "CA", "Zip": 95008, "Lat": 37.292850, "Lon": -121.930461 }, "geometry": { "type": "Point", "coordinates": [ -121.9304605, 37.2928502 ] } },
{ "type": "Feature", "properties": { "Store": "WHOLE FOODS MARKET #1017", "Address": "331 N GLENDALE AVE", "City": "GLENDALE", "State": "CA", "Zip": 91206, "Lat": 34.151109, "Lon": -118.246001 }, "geometry": { "type": "Point", "coordinates": [ -118.2460006, 34.1511095 ] } },
{ "type": "Feature", "properties": { "Store": "WHOLE FOODS MARKET #1022", "Address": "760 S SEPULVEDA BLVD", "City": "EL SEGUNDO", "State": "CA", "Zip": 90245, "Lat": 33.906263, "Lon": -118.392792 }, "geometry": { "type": "Point", "coordinates": [ -118.392792, 33.9062627 ] } },
{ "type": "Feature", "properties": { "Store": "WHOLE FOODS MARKET #1038", "Address": "500 WILSHIRE BLVD", "City": "SANTA MONICA", "State": "CA", "Zip": 90401, "Lat": 34.019779, "Lon": -118.496858 }, "geometry": { "type": "Point", "coordinates": [ -118.4968584, 34.0197795 ] } },
{ "type": "Feature", "properties": { "Store": "WHOLE FOODS MARKET #1046", "Address": "415 NEWPORT CENTER DR", "City": "NEWPORT BEACH", "State": "CA", "Zip": 92660, "Lat": 33.616542, "Lon": -117.873653 }, "geometry": { "type": "Point", "coordinates": [ -117.873653, 33.6165418 ] } },
{ "type": "Feature", "properties": { "Store": "WHOLE FOODS SF POTRERO H", "Address": "450 RHODE ISLAND ST", "City": "SAN FRANCISCO", "State": "CA", "Zip": 94107, "Lat": 37.764265, "Lon": -122.402810 }, "geometry": { "type": "Point", "coordinates": [ -122.4028098, 37.7642646 ] } },
{ "type": "Feature", "properties": { "Store": "WHOLE WHEATERY", "Address": "44264 10TH ST WEST", "City": "LANCASTER", "State": "CA", "Zip": 93534, "Lat": 34.687839, "Lon": -118.147140 }, "geometry": { "type": "Point", "coordinates": [ -118.1471397, 34.6878391 ] } },
{ "type": "Feature", "properties": { "Store": "WILLOWS THE", "Address": "1582 FOLSOM ST", "City": "SAN FRANCISCO", "State": "CA", "Zip": 94103, "Lat": 37.771141, "Lon": -122.415112 }, "geometry": { "type": "Point", "coordinates": [ -122.415112, 37.771141 ] } },
{ "type": "Feature", "properties": { "Store": "WINES OF THE WORLD", "Address": "4534 SAUGUS AVE", "City": "SHERMAN OAKS", "State": "CA", "Zip": 91403, "Lat": 34.152148, "Lon": -118.466152 }, "geometry": { "type": "Point", "coordinates": [ -118.4661522, 34.1521479 ] } },
{ "type": "Feature", "properties": { "Store": "XL PUBLIC HOUSE", "Address": "127 MAIN ST", "City": "SALINAS", "State": "CA", "Zip": 93901, "Lat": 36.676850, "Lon": -121.655175 }, "geometry": { "type": "Point", "coordinates": [ -121.655175, 36.67685 ] } },
{ "type": "Feature", "properties": { "Store": "YOLO CRAFT BEER WINE LIQ", "Address": "124 BLOSSOM HILL RD STE", "City": "SAN JOSE", "State": "CA", "Zip": 95123, "Lat": 37.252036, "Lon": -121.806183 }, "geometry": { "type": "Point", "coordinates": [ -121.806183, 37.2520359 ] } },
{ "type": "Feature", "properties": { "Store": "ZANOTTOS FAMILY MARKET", "Address": "1970 NAGLEE AVE", "City": "SAN JOSE", "State": "CA", "Zip": 95126, "Lat": 37.327864, "Lon": -121.931402 }, "geometry": { "type": "Point", "coordinates": [ -121.9314018, 37.3278645 ] } },
{ "type": "Feature", "properties": { "Store": "Favorite Brands New Mexico", "Address": "2500 Solano Dr NE", "City": "Albuquerque", "State": "NM", "Zip": 87110, "Lat": 35.108303, "Lon": -106.601580 }, "geometry": { "type": "Point", "coordinates": [ -106.60158, 35.108303 ] } },
{ "type": "Feature", "properties": { "Store": "ASTORIA BEER AND CHEESE", "Address": "3414 Broadway", "City": "Astoria", "State": "NY", "Zip": 11106, "Lat": 40.756290, "Lon": -73.913225 }, "geometry": { "type": "Point", "coordinates": [ -73.9132249, 40.7562899 ] } },
{ "type": "Feature", "properties": { "Store": "BEER TABLE PANTRY", "Address": "87 E 42nd St", "City": "New York", "State": "NY", "Zip": 10017, "Lat": 40.752530, "Lon": -73.977371 }, "geometry": { "type": "Point", "coordinates": [ -73.9773706, 40.7525304 ] } },
{ "type": "Feature", "properties": { "Store": "COOPERS CRAFT &KITCHEN 8TH AVE", "Address": "169 8th Ave", "City": "New York", "State": "NY", "Zip": 10011, "Lat": 40.742705, "Lon": -74.000776 }, "geometry": { "type": "Point", "coordinates": [ -74.000776, 40.742705 ] } },
{ "type": "Feature", "properties": { "Store": "GOOD BEER", "Address": "422 E 9th St", "City": "New York", "State": "NY", "Zip": 10009, "Lat": 40.727557, "Lon": -73.983876 }, "geometry": { "type": "Point", "coordinates": [ -73.9838756, 40.7275574 ] } },
{ "type": "Feature", "properties": { "Store": "MILK AND HOPS", "Address": "779 Broadway", "City": "New York", "State": "NY", "Zip": 10003, "Lat": 40.731539, "Lon": -73.991931 }, "geometry": { "type": "Point", "coordinates": [ -73.9919311, 40.7315386 ] } },
{ "type": "Feature", "properties": { "Store": "MURRAY'S TABLE", "Address": "264 Bleecker St", "City": "New York", "State": "NY", "Zip": 10014, "Lat": 40.731208, "Lon": -74.003192 }, "geometry": { "type": "Point", "coordinates": [ -74.0031916, 40.731208 ] } },
{ "type": "Feature", "properties": { "Store": "THE DIAMOND", "Address": "43 Franklin St", "City": "Brooklyn", "State": "NY", "Zip": 11222, "Lat": 40.726767, "Lon": -73.957494 }, "geometry": { "type": "Point", "coordinates": [ -73.9574945, 40.7267672 ] } },
{ "type": "Feature", "properties": { "Store": "THE DIVE BAR", "Address": "732 Amsterdam Ave.", "City": "New York", "State": "NY", "Zip": 10025, "Lat": 40.793965, "Lon": -73.970814 }, "geometry": { "type": "Point", "coordinates": [ -73.970814, 40.793965 ] } },
{ "type": "Feature", "properties": { "Store": "THE DOUBLE WINDSOR", "Address": "210 Prospect Park Wes", "City": "Brooklyn", "State": "NY", "Zip": 11215, "Lat": 40.660623, "Lon": -73.980545 }, "geometry": { "type": "Point", "coordinates": [ -73.980545, 40.660623 ] } },
{ "type": "Feature", "properties": { "Store": "THE GINGER MAN", "Address": "11 E 36th St", "City": "New York", "State": "NY", "Zip": 10016, "Lat": 40.749454, "Lon": -73.982611 }, "geometry": { "type": "Point", "coordinates": [ -73.9826114, 40.7494539 ] } },
{ "type": "Feature", "properties": { "Store": "THE OWL FARM", "Address": "297 9th St, Brooklyn", "City": "Brooklyn", "State": "NY", "Zip": 11215, "Lat": 40.669605, "Lon": -73.986597 }, "geometry": { "type": "Point", "coordinates": [ -73.986597, 40.669605 ] } },
{ "type": "Feature", "properties": { "Store": "TORST", "Address": "615 Manhattan Ave", "City": "Brooklyn", "State": "NY", "Zip": 11222, "Lat": 40.723414, "Lon": -73.950821 }, "geometry": { "type": "Point", "coordinates": [ -73.9508205, 40.723414 ] } },
{ "type": "Feature", "properties": { "Store": "UPRIGHT", "Address": "547 Hudson St", "City": "New York", "State": "NY", "Zip": 10014, "Lat": 40.734927, "Lon": -74.006409 }, "geometry": { "type": "Point", "coordinates": [ -74.006409, 40.734927 ] } },
{ "type": "Feature", "properties": { "Store": "WHOLE FOODS - TRIBECCA", "Address": "270 Greenwich St", "City": "New York", "State": "NY", "Zip": 10007, "Lat": 40.715531, "Lon": -74.011469 }, "geometry": { "type": "Point", "coordinates": [ -74.0114691, 40.715531 ] } },
{ "type": "Feature", "properties": { "Store": "13 Celsius", "Address": "3000 Caroline St", "City": "Houston", "State": "TX", "Zip": 77004, "Lat": 29.741254, "Lon": -95.373768 }, "geometry": { "type": "Point", "coordinates": [ -95.3737678, 29.7412542 ] } },
{ "type": "Feature", "properties": { "Store": "3rd Floor", "Address": "2303 Smith St., Suite 300", "City": "Houston", "State": "TX", "Zip": 77006, "Lat": 29.749005, "Lon": -95.375990 }, "geometry": { "type": "Point", "coordinates": [ -95.3759901, 29.7490045 ] } },
{ "type": "Feature", "properties": { "Store": "502 Bar", "Address": "502 Embassy Oaks", "City": "San Antonio", "State": "TX", "Zip": 78213, "Lat": 29.563592, "Lon": -98.487768 }, "geometry": { "type": "Point", "coordinates": [ -98.4877681, 29.5635916 ] } },
{ "type": "Feature", "properties": { "Store": "A Taste of Texas Wine", "Address": "200 River Walk Street", "City": "San Antonio", "State": "TX", "Zip": 78205, "Lat": 29.424814, "Lon": -98.490914 }, "geometry": { "type": "Point", "coordinates": [ -98.4909136, 29.4248143 ] } },
{ "type": "Feature", "properties": { "Store": "Abel's Grill & Taphouse", "Address": "12522 Amherst Drive", "City": "Austin", "State": "TX", "Zip": 78727, "Lat": 30.423974, "Lon": -97.715625 }, "geometry": { "type": "Point", "coordinates": [ -97.715625, 30.423974 ] } },
{ "type": "Feature", "properties": { "Store": "AF+B", "Address": "2869 Crockett St.", "City": "Fort Worth", "State": "TX", "Zip": 76107, "Lat": 32.750119, "Lon": -97.357792 }, "geometry": { "type": "Point", "coordinates": [ -97.3577919, 32.7501186 ] } },
{ "type": "Feature", "properties": { "Store": "Alamo - Village", "Address": "2700 W Anderson Lane Ste 701", "City": "Austin", "State": "TX", "Zip": 78757, "Lat": 30.358638, "Lon": -97.734922 }, "geometry": { "type": "Point", "coordinates": [ -97.7349222, 30.3586379 ] } },
{ "type": "Feature", "properties": { "Store": "Alamo Draft - Lakeline", "Address": "14028 N Highway 183", "City": "Austin", "State": "TX", "Zip": 78717, "Lat": 30.477166, "Lon": -97.803496 }, "geometry": { "type": "Point", "coordinates": [ -97.8034963, 30.4771661 ] } },
{ "type": "Feature", "properties": { "Store": "Alamo Draft - Slaughter", "Address": "5701 Slaughter Lane", "City": "Austin", "State": "TX", "Zip": 78749, "Lat": 30.200414, "Lon": -97.869762 }, "geometry": { "type": "Point", "coordinates": [ -97.869762, 30.2004142 ] } },
{ "type": "Feature", "properties": { "Store": "Alamo Draft House - Park North - SA BF", "Address": "1000 Broadway", "City": "San Antonio", "State": "TX", "Zip": 78215, "Lat": 29.434504, "Lon": -98.480467 }, "geometry": { "type": "Point", "coordinates": [ -98.4804669, 29.4345036 ] } },
{ "type": "Feature", "properties": { "Store": "Alamo Drafthouse - South Lamar", "Address": "1120 S Lamar Blvd", "City": "Austin", "State": "TX", "Zip": 78704, "Lat": 30.255541, "Lon": -97.763319 }, "geometry": { "type": "Point", "coordinates": [ -97.7633192, 30.255541 ] } },
{ "type": "Feature", "properties": { "Store": "Alamo Drafthouse Cinema - Stone Oak", "Address": "22806 US Highway 281 N", "City": "SAN ANTONIO", "State": "TX", "Zip": 78258, "Lat": 29.653739, "Lon": -98.447188 }, "geometry": { "type": "Point", "coordinates": [ -98.447188, 29.6537391 ] } },
{ "type": "Feature", "properties": { "Store": "Alta's Cafe", "Address": "74 Trinity Street", "City": "Austin", "State": "TX", "Zip": 78701, "Lat": 30.260519, "Lon": -97.741729 }, "geometry": { "type": "Point", "coordinates": [ -97.7417291, 30.2605185 ] } },
{ "type": "Feature", "properties": { "Store": "Annie's Cafe", "Address": "319 Congress Ave", "City": "Austin", "State": "TX", "Zip": 78701, "Lat": 30.265732, "Lon": -97.743419 }, "geometry": { "type": "Point", "coordinates": [ -97.7434192, 30.2657316 ] } },
{ "type": "Feature", "properties": { "Store": "Antebellum Ale House", "Address": "321 E Oak St", "City": "Weatherford", "State": "TX", "Zip": 76086, "Lat": 32.757365, "Lon": -97.792901 }, "geometry": { "type": "Point", "coordinates": [ -97.7929005, 32.7573654 ] } },
{ "type": "Feature", "properties": { "Store": "Antonelli's Cheese Shop", "Address": "4220 Duval Street", "City": "Austin", "State": "TX", "Zip": 78751, "Lat": 30.304292, "Lon": -97.726564 }, "geometry": { "type": "Point", "coordinates": [ -97.7265638, 30.304292 ] } },
{ "type": "Feature", "properties": { "Store": "Anvil Pub", "Address": "2638 Elm St", "City": "Dallas", "State": "TX", "Zip": 75226, "Lat": 32.784172, "Lon": -96.785027 }, "geometry": { "type": "Point", "coordinates": [ -96.785027, 32.784172 ] } },
{ "type": "Feature", "properties": { "Store": "Arcade Midtown Kitchen", "Address": "303 Pearl Parkway", "City": "San Antonio", "State": "TX", "Zip": 78215, "Lat": 29.442392, "Lon": -98.479462 }, "geometry": { "type": "Point", "coordinates": [ -98.4794618, 29.4423922 ] } },
{ "type": "Feature", "properties": { "Store": "Austin Ale House", "Address": "301 W 6th St", "City": "Austin", "State": "TX", "Zip": 78701, "Lat": 30.268517, "Lon": -97.745506 }, "geometry": { "type": "Point", "coordinates": [ -97.745506, 30.268517 ] } },
{ "type": "Feature", "properties": { "Store": "Austin Mariott North", "Address": "2600 La Frontera Blvd", "City": "Round Rock", "State": "TX", "Zip": 78681, "Lat": 30.483639, "Lon": -97.687824 }, "geometry": { "type": "Point", "coordinates": [ -97.6878239, 30.483639 ] } },
{ "type": "Feature", "properties": { "Store": "B.B. Rovers", "Address": "12636 Research Blvd Ste 101B", "City": "Austin", "State": "TX", "Zip": 78759, "Lat": 30.431001, "Lon": -97.764644 }, "geometry": { "type": "Point", "coordinates": [ -97.7646444, 30.4310008 ] } },
{ "type": "Feature", "properties": { "Store": "Bakkhus Tavern", "Address": "605 6th Street", "City": "Kemah", "State": "TX", "Zip": 77565, "Lat": 29.544102, "Lon": -95.017619 }, "geometry": { "type": "Point", "coordinates": [ -95.0176194, 29.5441022 ] } },
{ "type": "Feature", "properties": { "Store": "Banger's Sausage House", "Address": "79 Rainey Street", "City": "Austin", "State": "TX", "Zip": 78701, "Lat": 30.258905, "Lon": -97.738413 }, "geometry": { "type": "Point", "coordinates": [ -97.738413, 30.258905 ] } },
{ "type": "Feature", "properties": { "Store": "Barcadia- FW", "Address": "816 Matisse Dr.", "City": "Fort Worth", "State": "TX", "Zip": 76107, "Lat": 32.750401, "Lon": -97.352155 }, "geometry": { "type": "Point", "coordinates": [ -97.3521549, 32.7504008 ] } },
{ "type": "Feature", "properties": { "Store": "Barley Swine", "Address": "2024 S Lamar Blvd", "City": "Austin", "State": "TX", "Zip": 78704, "Lat": 30.249259, "Lon": -97.768473 }, "geometry": { "type": "Point", "coordinates": [ -97.7684725, 30.2492593 ] } },
{ "type": "Feature", "properties": { "Store": "Barley-Hoppers Drafthouse", "Address": "721 S. 1st St.", "City": "Abilene", "State": "TX", "Zip": 79601, "Lat": 32.448114, "Lon": -99.730610 }, "geometry": { "type": "Point", "coordinates": [ -99.7306104, 32.4481138 ] } },
{ "type": "Feature", "properties": { "Store": "Barton Hill Food Mart", "Address": "2900 S Lamar Blvd", "City": "Austin", "State": "TX", "Zip": 78704, "Lat": 30.243679, "Lon": -97.782841 }, "geometry": { "type": "Point", "coordinates": [ -97.7828412, 30.2436787 ] } },
{ "type": "Feature", "properties": { "Store": "Batanga", "Address": "908 Congress", "City": "Houston", "State": "TX", "Zip": 77002, "Lat": 29.762366, "Lon": -95.361425 }, "geometry": { "type": "Point", "coordinates": [ -95.3614249, 29.7623665 ] } },
{ "type": "Feature", "properties": { "Store": "Baxters On Main", "Address": "919 Main Street", "City": "Bastop", "State": "TX", "Zip": 78602, "Lat": 30.109958, "Lon": -97.319578 }, "geometry": { "type": "Point", "coordinates": [ -97.319578, 30.109958 ] } },
{ "type": "Feature", "properties": { "Store": "Beatniks Market", "Address": "4415 Manchaca Road", "City": "Austin", "State": "TX", "Zip": 78745, "Lat": 30.228376, "Lon": -97.788874 }, "geometry": { "type": "Point", "coordinates": [ -97.788874, 30.228376 ] } },
{ "type": "Feature", "properties": { "Store": "Beer Market Co.", "Address": "920 Studemont, Suite 900", "City": "Houston", "State": "TX", "Zip": 77007, "Lat": 29.767311, "Lon": -95.391581 }, "geometry": { "type": "Point", "coordinates": [ -95.3915812, 29.767311 ] } },
{ "type": "Feature", "properties": { "Store": "Benjy's on Washington", "Address": "5922 Washington Avenue", "City": "Houston", "State": "TX", "Zip": 77007, "Lat": 29.771278, "Lon": -95.421376 }, "geometry": { "type": "Point", "coordinates": [ -95.4213761, 29.7712781 ] } },
{ "type": "Feature", "properties": { "Store": "Benjy's Rice Village", "Address": "2424 Dunstan Rd #125", "City": "Houston", "State": "TX", "Zip": 77005, "Lat": 29.719555, "Lon": -95.416350 }, "geometry": { "type": "Point", "coordinates": [ -95.4163497, 29.7195555 ] } },
{ "type": "Feature", "properties": { "Store": "Big Ben Tavern", "Address": "636 Hwy 6, Suite 1000", "City": "Sugar Land", "State": "TX", "Zip": 77478, "Lat": 29.607152, "Lon": -95.642843 }, "geometry": { "type": "Point", "coordinates": [ -95.6428425, 29.6071515 ] } },
{ "type": "Feature", "properties": { "Store": "Big Brew - Houston", "Address": "1001 Avenida De Las Americas", "City": "Houston", "State": "TX", "Zip": 77010, "Lat": 29.752207, "Lon": -95.358021 }, "geometry": { "type": "Point", "coordinates": [ -95.3580209, 29.752207 ] } },
{ "type": "Feature", "properties": { "Store": "Big Hops - Huebner", "Address": "22250 Huebner", "City": "San Antonio", "State": "TX", "Zip": 78259, "Lat": 29.626193, "Lon": -98.491234 }, "geometry": { "type": "Point", "coordinates": [ -98.4912339, 29.6261934 ] } },
{ "type": "Feature", "properties": { "Store": "Big Hops Gastropub - Bulverde", "Address": "22250 Bulverde Rd Ste 106", "City": "San Antonio", "State": "TX", "Zip": 78261, "Lat": 29.648832, "Lon": -98.424901 }, "geometry": { "type": "Point", "coordinates": [ -98.4249008, 29.648832 ] } },
{ "type": "Feature", "properties": { "Store": "Big Hops Growler Station - Austin", "Address": "306 Austin Street", "City": "San Antonio", "State": "TX", "Zip": 78215, "Lat": 29.430709, "Lon": -98.479858 }, "geometry": { "type": "Point", "coordinates": [ -98.4798578, 29.4307094 ] } },
{ "type": "Feature", "properties": { "Store": "Big Hops Growler Station - Broadway", "Address": "8313 Broadway", "City": "San Antonio", "State": "TX", "Zip": 78209, "Lat": 29.513519, "Lon": -98.466388 }, "geometry": { "type": "Point", "coordinates": [ -98.4663876, 29.513519 ] } },
{ "type": "Feature", "properties": { "Store": "Billy's On Burnet", "Address": "2105 Hancock Drive", "City": "Austin", "State": "TX", "Zip": 78756, "Lat": 30.321995, "Lon": -97.739790 }, "geometry": { "type": "Point", "coordinates": [ -97.73979, 30.3219946 ] } },
{ "type": "Feature", "properties": { "Store": "BJ's Restaurant & Brewhouse - Brodie", "Address": "5207 Brodie Lane #300", "City": "Sunset Valley", "State": "TX", "Zip": 78745, "Lat": 30.231660, "Lon": -97.816789 }, "geometry": { "type": "Point", "coordinates": [ -97.8167887, 30.2316602 ] } },
{ "type": "Feature", "properties": { "Store": "BJ's Restaurant & Brewhouse - I35N", "Address": "4201 I H 35 North", "City": "Round Rock", "State": "TX", "Zip": 78664, "Lat": 30.561040, "Lon": -97.691520 }, "geometry": { "type": "Point", "coordinates": [ -97.6915202, 30.5610398 ] } },
{ "type": "Feature", "properties": { "Store": "BJ's Restaurant & Brewhouse - Mopac", "Address": "10515 Mopac Expressway", "City": "Austin", "State": "TX", "Zip": 78759, "Lat": 30.367737, "Lon": -97.742760 }, "geometry": { "type": "Point", "coordinates": [ -97.7427599, 30.3677372 ] } },
{ "type": "Feature", "properties": { "Store": "Black Sheep Lodge", "Address": "2108 S Lamar Boulevard", "City": "Austin", "State": "TX", "Zip": 78704, "Lat": 30.248391, "Lon": -97.771128 }, "geometry": { "type": "Point", "coordinates": [ -97.7711281, 30.248391 ] } },
{ "type": "Feature", "properties": { "Store": "Black Star Co-op Pub", "Address": "7020 Easy Wind Drive, Suite 100", "City": "Austin", "State": "TX", "Zip": 78752, "Lat": 30.338596, "Lon": -97.718692 }, "geometry": { "type": "Point", "coordinates": [ -97.7186918, 30.3385963 ] } },
{ "type": "Feature", "properties": { "Store": "Bluebonnet Food Mart", "Address": "1701 Bluebonnet Lane", "City": "Austin", "State": "TX", "Zip": 78704, "Lat": 30.254354, "Lon": -97.771860 }, "geometry": { "type": "Point", "coordinates": [ -97.7718598, 30.2543539 ] } },
{ "type": "Feature", "properties": { "Store": "BlueShark PC and Grocery", "Address": "1638 NE Loop 410", "City": "San Antonio", "State": "TX", "Zip": 78209, "Lat": 29.514663, "Lon": -98.438265 }, "geometry": { "type": "Point", "coordinates": [ -98.4382646, 29.5146631 ] } },
{ "type": "Feature", "properties": { "Store": "Boheme", "Address": "307 Fairview Street", "City": "Houston", "State": "TX", "Zip": 77006, "Lat": 29.748067, "Lon": -95.386061 }, "geometry": { "type": "Point", "coordinates": [ -95.3860611, 29.7480668 ] } },
{ "type": "Feature", "properties": { "Store": "Bohemeos", "Address": "708 Telephone Rd.", "City": "Houston", "State": "TX", "Zip": 77023, "Lat": 29.734852, "Lon": -95.331468 }, "geometry": { "type": "Point", "coordinates": [ -95.331468, 29.7348523 ] } },
{ "type": "Feature", "properties": { "Store": "Boiler House", "Address": "312 Pearl Pkwy - Building 3", "City": "San Antonio", "State": "TX", "Zip": 78215, "Lat": 29.443268, "Lon": -98.479753 }, "geometry": { "type": "Point", "coordinates": [ -98.4797531, 29.4432677 ] } },
{ "type": "Feature", "properties": { "Store": "Boneyard", "Address": "8150 Washington Ave", "City": "Houston", "State": "TX", "Zip": 77007, "Lat": 29.782238, "Lon": -95.435822 }, "geometry": { "type": "Point", "coordinates": [ -95.4358221, 29.7822385 ] } },
{ "type": "Feature", "properties": { "Store": "Boondoggles Pizzeria", "Address": "4106 NASA Road 1, Ste D", "City": "El Lago", "State": "TX", "Zip": 77586, "Lat": 29.564987, "Lon": -95.053497 }, "geometry": { "type": "Point", "coordinates": [ -95.0534967, 29.5649869 ] } },
{ "type": "Feature", "properties": { "Store": "Bottle Shop - World Beer Company", "Address": "2116 Greenville Avenue", "City": "Dallas", "State": "TX", "Zip": 75206, "Lat": 32.815370, "Lon": -96.769948 }, "geometry": { "type": "Point", "coordinates": [ -96.7699482, 32.8153697 ] } },
{ "type": "Feature", "properties": { "Store": "Bovine & Barley", "Address": "416 Main St.", "City": "Houston", "State": "TX", "Zip": 77002, "Lat": 29.761143, "Lon": -95.361973 }, "geometry": { "type": "Point", "coordinates": [ -95.361973, 29.761143 ] } },
{ "type": "Feature", "properties": { "Store": "Bowlounge", "Address": "167 Turtle Creek Blvd #103", "City": "Dallas", "State": "TX", "Zip": 75207, "Lat": 32.793371, "Lon": -96.827526 }, "geometry": { "type": "Point", "coordinates": [ -96.827526, 32.793371 ] } },
{ "type": "Feature", "properties": { "Store": "BR Vino", "Address": "1917 -19 Avenue G", "City": "Rosenberg", "State": "TX", "Zip": 77471, "Lat": 29.559538, "Lon": -95.807338 }, "geometry": { "type": "Point", "coordinates": [ -95.8073375, 29.5595385 ] } },
{ "type": "Feature", "properties": { "Store": "Brand Beverages", "Address": "29202 Ralph Fair Road, Ste. 400", "City": "Fair Oaks Ranch", "State": "TX", "Zip": 78015, "Lat": 29.731753, "Lon": -98.623079 }, "geometry": { "type": "Point", "coordinates": [ -98.6230791, 29.7317534 ] } },
{ "type": "Feature", "properties": { "Store": "Brass House", "Address": "115 San Jacinto Blvd", "City": "Austin", "State": "TX", "Zip": 78701, "Lat": 30.263347, "Lon": -97.741670 }, "geometry": { "type": "Point", "coordinates": [ -97.7416701, 30.2633475 ] } },
{ "type": "Feature", "properties": { "Store": "Brasserie 19", "Address": "1962 W Gray St", "City": "Houston", "State": "TX", "Zip": 77019, "Lat": 29.753468, "Lon": -95.407279 }, "geometry": { "type": "Point", "coordinates": [ -95.4072787, 29.7534679 ] } },
{ "type": "Feature", "properties": { "Store": "BRC Gastropub", "Address": "519 Shepard", "City": "Houston", "State": "TX", "Zip": 77007, "Lat": 29.780014, "Lon": -95.409471 }, "geometry": { "type": "Point", "coordinates": [ -95.4094715, 29.7800141 ] } },
{ "type": "Feature", "properties": { "Store": "Brew Exchange", "Address": "706 West 6th Street", "City": "Austin", "State": "TX", "Zip": 78701, "Lat": 30.270356, "Lon": -97.749884 }, "geometry": { "type": "Point", "coordinates": [ -97.749884, 30.270356 ] } },
{ "type": "Feature", "properties": { "Store": "Brews Brothers", "Address": "2404 Strand St", "City": "Galveston", "State": "TX", "Zip": 77550, "Lat": 29.306944, "Lon": -94.796237 }, "geometry": { "type": "Point", "coordinates": [ -94.7962371, 29.3069444 ] } },
{ "type": "Feature", "properties": { "Store": "Brodie Park Market", "Address": "9001 Brodie Lane", "City": "Austin", "State": "TX", "Zip": 78748, "Lat": 30.193864, "Lon": -97.842393 }, "geometry": { "type": "Point", "coordinates": [ -97.8423925, 30.1938643 ] } },
{ "type": "Feature", "properties": { "Store": "Brooklyn Athletic Club", "Address": "601 Richmond", "City": "Houston", "State": "TX", "Zip": 77006, "Lat": 29.734251, "Lon": -95.387176 }, "geometry": { "type": "Point", "coordinates": [ -95.3871762, 29.734251 ] } },
{ "type": "Feature", "properties": { "Store": "Bufalina", "Address": "1519 E Cesar Chavez St", "City": "Austin", "State": "TX", "Zip": 78702, "Lat": 30.258386, "Lon": -97.728887 }, "geometry": { "type": "Point", "coordinates": [ -97.7288873, 30.2583862 ] } },
{ "type": "Feature", "properties": { "Store": "Burnet Chevron", "Address": "8218 Burnet Road", "City": "Austin", "State": "TX", "Zip": 78757, "Lat": 30.361777, "Lon": -97.729757 }, "geometry": { "type": "Point", "coordinates": [ -97.7297572, 30.3617772 ] } },
{ "type": "Feature", "properties": { "Store": "Cain & Abel's", "Address": "2313 Rio Grande Street", "City": "Austin", "State": "TX", "Zip": 78705, "Lat": 30.287752, "Lon": -97.744500 }, "geometry": { "type": "Point", "coordinates": [ -97.7444997, 30.2877516 ] } },
{ "type": "Feature", "properties": { "Store": "Calahan's", "Address": "194 W San Antonio St", "City": "New Braunfels", "State": "TX", "Zip": 78130, "Lat": 29.702219, "Lon": -98.125651 }, "geometry": { "type": "Point", "coordinates": [ -98.125651, 29.7022186 ] } },
{ "type": "Feature", "properties": { "Store": "Capitol Food Stop #2", "Address": "8201 North Lamar Blvd", "City": "Austin", "State": "TX", "Zip": 78753, "Lat": 30.350808, "Lon": -97.708381 }, "geometry": { "type": "Point", "coordinates": [ -97.7083808, 30.3508081 ] } },
{ "type": "Feature", "properties": { "Store": "Caves Lounge", "Address": "900 W Division St", "City": "Arlington", "State": "TX", "Zip": 76012, "Lat": 32.739081, "Lon": -97.117367 }, "geometry": { "type": "Point", "coordinates": [ -97.1173673, 32.739081 ] } },
{ "type": "Feature", "properties": { "Store": "Center Court Pizza & Brew - Cinco Ranch", "Address": "26440 FM 1096 #490", "City": "Richmond", "State": "TX", "Zip": 77406, "Lat": 29.613964, "Lon": -95.743143 }, "geometry": { "type": "Point", "coordinates": [ -95.7431431, 29.6139643 ] } },
{ "type": "Feature", "properties": { "Store": "Center Court Pizza & Brew - League", "Address": "3202 Marina Bay Drive, Suite J", "City": "League City", "State": "TX", "Zip": 77573, "Lat": 29.542966, "Lon": -95.055740 }, "geometry": { "type": "Point", "coordinates": [ -95.0557399, 29.5429663 ] } },
{ "type": "Feature", "properties": { "Store": "Center Court Pizza & Brew - Missouri", "Address": "7425 Texas 6", "City": "Missouri City", "State": "TX", "Zip": 77459, "Lat": 29.551513, "Lon": -95.551387 }, "geometry": { "type": "Point", "coordinates": [ -95.5513865, 29.5515128 ] } },
{ "type": "Feature", "properties": { "Store": "Center Court Pizza & Brew - Pearland", "Address": "9721 W Broadway Suite 101", "City": "Pearland", "State": "TX", "Zip": 77584, "Lat": 29.557199, "Lon": -95.370983 }, "geometry": { "type": "Point", "coordinates": [ -95.3709826, 29.5571986 ] } },
{ "type": "Feature", "properties": { "Store": "Central Market - Broadway", "Address": "4821 Broadway", "City": "San Antonio", "State": "TX", "Zip": 78209, "Lat": 29.470615, "Lon": -98.464322 }, "geometry": { "type": "Point", "coordinates": [ -98.464322, 29.470615 ] } },
{ "type": "Feature", "properties": { "Store": "Central Market - FW", "Address": "4651 West Fwy", "City": "Fort Worth", "State": "TX", "Zip": 76107, "Lat": 32.729864, "Lon": -97.388801 }, "geometry": { "type": "Point", "coordinates": [ -97.3888014, 32.7298639 ] } },
{ "type": "Feature", "properties": { "Store": "Central Market - Lovers", "Address": "5750 E Lovers Ln", "City": "Dallas", "State": "TX", "Zip": 75206, "Lat": 32.849596, "Lon": -96.768833 }, "geometry": { "type": "Point", "coordinates": [ -96.7688329, 32.8495962 ] } },
{ "type": "Feature", "properties": { "Store": "Central Market - North Lamar", "Address": "4001 N Lamar Suite 100 A", "City": "Austin", "State": "TX", "Zip": 78758, "Lat": 30.307425, "Lon": -97.739677 }, "geometry": { "type": "Point", "coordinates": [ -97.7396774, 30.3074252 ] } },
{ "type": "Feature", "properties": { "Store": "Central Market - Plano", "Address": "320 Coit Rd", "City": "Plano", "State": "TX", "Zip": 75075, "Lat": 33.002045, "Lon": -96.764883 }, "geometry": { "type": "Point", "coordinates": [ -96.764883, 33.0020447 ] } },
{ "type": "Feature", "properties": { "Store": "Central Market - Preston", "Address": "10720 Preston Rd", "City": "Dallas", "State": "TX", "Zip": 75230, "Lat": 32.893979, "Lon": -96.802621 }, "geometry": { "type": "Point", "coordinates": [ -96.8026208, 32.8939793 ] } },
{ "type": "Feature", "properties": { "Store": "Central Market - Southlake", "Address": "1425 E Southlake Blvd", "City": "Southlake", "State": "TX", "Zip": 76092, "Lat": 32.939096, "Lon": -97.131305 }, "geometry": { "type": "Point", "coordinates": [ -97.1313051, 32.939096 ] } },
{ "type": "Feature", "properties": { "Store": "Central Market - Westgate", "Address": "4477 South Lamar, #1000", "City": "Austin", "State": "TX", "Zip": 78745, "Lat": 30.230592, "Lon": -97.798361 }, "geometry": { "type": "Point", "coordinates": [ -97.7983615, 30.2305922 ] } },
{ "type": "Feature", "properties": { "Store": "Central Market -Westheimer", "Address": "3815 Westheimer", "City": "Houston", "State": "TX", "Zip": 77027, "Lat": 29.740985, "Lon": -95.444044 }, "geometry": { "type": "Point", "coordinates": [ -95.4440436, 29.740985 ] } },
{ "type": "Feature", "properties": { "Store": "Chelsea Wine Bar", "Address": "4106 NASA Pkwy, Ste F", "City": "El Lago", "State": "TX", "Zip": 77586, "Lat": 29.565273, "Lon": -95.053420 }, "geometry": { "type": "Point", "coordinates": [ -95.0534196, 29.5652732 ] } },
{ "type": "Feature", "properties": { "Store": "Chicago House", "Address": "607 Trinity Street", "City": "Austin", "State": "TX", "Zip": 78701, "Lat": 30.267560, "Lon": -97.738938 }, "geometry": { "type": "Point", "coordinates": [ -97.7389376, 30.2675596 ] } },
{ "type": "Feature", "properties": { "Store": "Choice Beverage", "Address": "4600 West Eldorado Pkwy", "City": "McKinney", "State": "TX", "Zip": 75070, "Lat": 33.173300, "Lon": -96.677595 }, "geometry": { "type": "Point", "coordinates": [ -96.677595, 33.1733 ] } },
{ "type": "Feature", "properties": { "Store": "Choice Beverage", "Address": "4600 Eldorado Pkwy #700", "City": "McKinney", "State": "TX", "Zip": 75070, "Lat": 33.173300, "Lon": -96.677595 }, "geometry": { "type": "Point", "coordinates": [ -96.677595, 33.1733 ] } },
{ "type": "Feature", "properties": { "Store": "Claude Hoppers", "Address": "19178 Blanco RD", "City": "San Antonio", "State": "TX", "Zip": 78258, "Lat": 29.620746, "Lon": -98.511424 }, "geometry": { "type": "Point", "coordinates": [ -98.5114236, 29.6207463 ] } },
{ "type": "Feature", "properties": { "Store": "Coal Vines", "Address": "1550 Lake Point Pkwy, Ste 100", "City": "Sugarland", "State": "TX", "Zip": 77478, "Lat": 29.602384, "Lon": -95.622043 }, "geometry": { "type": "Point", "coordinates": [ -95.6220432, 29.6023836 ] } },
{ "type": "Feature", "properties": { "Store": "Contigo", "Address": "2027 Anchor Lane", "City": "Austin", "State": "TX", "Zip": 78723, "Lat": 30.287843, "Lon": -97.703443 }, "geometry": { "type": "Point", "coordinates": [ -97.703443, 30.2878426 ] } },
{ "type": "Feature", "properties": { "Store": "Cork and Company", "Address": "308 Congress Avenue", "City": "Austin", "State": "TX", "Zip": 78701, "Lat": 30.265704, "Lon": -97.743942 }, "geometry": { "type": "Point", "coordinates": [ -97.7439421, 30.2657035 ] } },
{ "type": "Feature", "properties": { "Store": "Corner Food Mart\/Shell Station", "Address": "3698 FM 528", "City": "Friendswood", "State": "TX", "Zip": 77546, "Lat": 29.521554, "Lon": -95.169132 }, "geometry": { "type": "Point", "coordinates": [ -95.1691324, 29.5215538 ] } },
{ "type": "Feature", "properties": { "Store": "Cost Plus - Flower Mound", "Address": "6101 Long Prairie Rd.", "City": "Flower Mound", "State": "TX", "Zip": 75028, "Lat": 33.069900, "Lon": -97.084573 }, "geometry": { "type": "Point", "coordinates": [ -97.0845727, 33.0698999 ] } },
{ "type": "Feature", "properties": { "Store": "Cost Plus - Ft. Worth", "Address": "4701 West Freeway", "City": "Ft. Worth", "State": "TX", "Zip": 76107, "Lat": 32.731473, "Lon": -97.390561 }, "geometry": { "type": "Point", "coordinates": [ -97.390561, 32.7314731 ] } },
{ "type": "Feature", "properties": { "Store": "Cost Plus - Grapevine", "Address": "1317 State Hwy. 114 W.", "City": "Grapevine", "State": "TX", "Zip": 76051, "Lat": 32.929977, "Lon": -97.089009 }, "geometry": { "type": "Point", "coordinates": [ -97.0890092, 32.9299766 ] } },
{ "type": "Feature", "properties": { "Store": "Cost Plus - Greenville", "Address": "5500 Greenville Ave", "City": "Dallas", "State": "TX", "Zip": 75206, "Lat": 32.854427, "Lon": -96.768516 }, "geometry": { "type": "Point", "coordinates": [ -96.7685161, 32.854427 ] } },
{ "type": "Feature", "properties": { "Store": "Cost Plus - Plano", "Address": "1201 N. Central Expressway", "City": "Plano", "State": "TX", "Zip": 75075, "Lat": 33.018152, "Lon": -96.710607 }, "geometry": { "type": "Point", "coordinates": [ -96.7106072, 33.0181517 ] } },
{ "type": "Feature", "properties": { "Store": "Cost Plus - Watauga", "Address": "7616 Denton Hwy.", "City": "Watauga", "State": "TX", "Zip": 76148, "Lat": 32.882563, "Lon": -97.258854 }, "geometry": { "type": "Point", "coordinates": [ -97.2588538, 32.8825627 ] } },
{ "type": "Feature", "properties": { "Store": "Cottonwood", "Address": "3422 N Shepherd", "City": "Houston", "State": "TX", "Zip": 77018, "Lat": 29.818274, "Lon": -95.409910 }, "geometry": { "type": "Point", "coordinates": [ -95.40991, 29.818274 ] } },
{ "type": "Feature", "properties": { "Store": "Cover 2", "Address": "13701 US HWY 183 North", "City": "Austin", "State": "TX", "Zip": 78750, "Lat": 30.449758, "Lon": -97.789761 }, "geometry": { "type": "Point", "coordinates": [ -97.7897605, 30.4497575 ] } },
{ "type": "Feature", "properties": { "Store": "Craft Pride", "Address": "61 Rainey Street", "City": "Austin", "State": "TX", "Zip": 78701, "Lat": 30.257925, "Lon": -97.738777 }, "geometry": { "type": "Point", "coordinates": [ -97.738777, 30.257925 ] } },
{ "type": "Feature", "properties": { "Store": "Cullen's Upscale American Grille", "Address": "11500 SPACE CENTER BOULEVARD", "City": "HOUSTON", "State": "TX", "Zip": 77059, "Lat": 29.624660, "Lon": -95.140640 }, "geometry": { "type": "Point", "coordinates": [ -95.1406401, 29.6246602 ] } },
{ "type": "Feature", "properties": { "Store": "Cured", "Address": "306 Pearl Parkway", "City": "San Antonio", "State": "TX", "Zip": 78215, "Lat": 29.441957, "Lon": -98.479934 }, "geometry": { "type": "Point", "coordinates": [ -98.4799336, 29.4419566 ] } },
{ "type": "Feature", "properties": { "Store": "Cuvee Coffee", "Address": "22601 Hwy 7th West", "City": "Spicewood", "State": "TX", "Zip": 78669, "Lat": 30.476050, "Lon": -98.156574 }, "geometry": { "type": "Point", "coordinates": [ -98.156574, 30.4760499 ] } },
{ "type": "Feature", "properties": { "Store": "D & Q The Beer Station", "Address": "806 Richmond Ave", "City": "Houston", "State": "TX", "Zip": 77006, "Lat": 29.734730, "Lon": -95.389088 }, "geometry": { "type": "Point", "coordinates": [ -95.389088, 29.73473 ] } },
{ "type": "Feature", "properties": { "Store": "D & T Drive Inn", "Address": "1307 Enid Street", "City": "Houston", "State": "TX", "Zip": 77009, "Lat": 29.803433, "Lon": -95.375802 }, "geometry": { "type": "Point", "coordinates": [ -95.375802, 29.8034327 ] } },
{ "type": "Feature", "properties": { "Store": "Dai Due Butcher Shop", "Address": "2406 Manor Road", "City": "Austin", "State": "TX", "Zip": 78722, "Lat": 30.285028, "Lon": -97.716907 }, "geometry": { "type": "Point", "coordinates": [ -97.716907, 30.285028 ] } },
{ "type": "Feature", "properties": { "Store": "Dallas Beer Kitchen", "Address": "1802 Greenville Ave", "City": "Dallas", "State": "TX", "Zip": 75206, "Lat": 32.812301, "Lon": -96.770029 }, "geometry": { "type": "Point", "coordinates": [ -96.770029, 32.8123013 ] } },
{ "type": "Feature", "properties": { "Store": "Dany's Liquor", "Address": "2700 West Pecan Street", "City": "Pflugerville", "State": "TX", "Zip": 78660, "Lat": 30.446210, "Lon": -97.646699 }, "geometry": { "type": "Point", "coordinates": [ -97.646699, 30.4462101 ] } },
{ "type": "Feature", "properties": { "Store": "Debb's Liquor Store - College St", "Address": "2525 College Street", "City": "Beaumont", "State": "TX", "Zip": 77701, "Lat": 30.068277, "Lon": -94.111335 }, "geometry": { "type": "Point", "coordinates": [ -94.111335, 30.068277 ] } },
{ "type": "Feature", "properties": { "Store": "Debb's Liquor Store - Phelan Blvd", "Address": "6666 Phelan", "City": "Beaumont", "State": "TX", "Zip": 77706, "Lat": 30.076336, "Lon": -94.174562 }, "geometry": { "type": "Point", "coordinates": [ -94.1745625, 30.076336 ] } },
{ "type": "Feature", "properties": { "Store": "Doc's Liquor", "Address": "8806 Bandera Road, Ste. 106", "City": "San Antonio", "State": "TX", "Zip": 78250, "Lat": 29.525707, "Lon": -98.639565 }, "geometry": { "type": "Point", "coordinates": [ -98.6395651, 29.5257067 ] } },
{ "type": "Feature", "properties": { "Store": "Dog & Duck", "Address": "406 W 17TH ST", "City": "AUSTIN", "State": "TX", "Zip": 78701, "Lat": 30.280037, "Lon": -97.742712 }, "geometry": { "type": "Point", "coordinates": [ -97.7427124, 30.280037 ] } },
{ "type": "Feature", "properties": { "Store": "Draught House Pub", "Address": "4112 Medical Pkwy", "City": "Austin", "State": "TX", "Zip": 78756, "Lat": 30.311045, "Lon": -97.742910 }, "geometry": { "type": "Point", "coordinates": [ -97.7429102, 30.3110447 ] } },
{ "type": "Feature", "properties": { "Store": "Drink Coffee & Wine Bar, Inc.", "Address": "200 Navarro Streeet", "City": "San Antonio", "State": "TX", "Zip": 78205, "Lat": 29.423610, "Lon": -98.489863 }, "geometry": { "type": "Point", "coordinates": [ -98.4898629, 29.4236103 ] } },
{ "type": "Feature", "properties": { "Store": "Duval Market", "Address": "500 East 51st Street", "City": "Austin", "State": "TX", "Zip": 78751, "Lat": 30.314044, "Lon": -97.719041 }, "geometry": { "type": "Point", "coordinates": [ -97.7190406, 30.3140436 ] } },
{ "type": "Feature", "properties": { "Store": "East 1st Grocery", "Address": "1811 E Cesar Chavez Street", "City": "Austin", "State": "TX", "Zip": 78702, "Lat": 30.257300, "Lon": -97.725199 }, "geometry": { "type": "Point", "coordinates": [ -97.7251993, 30.2573 ] } },
{ "type": "Feature", "properties": { "Store": "East Braker Ln Food Mart", "Address": "1005 East Braker Lane #3", "City": "Austin", "State": "TX", "Zip": 78753, "Lat": 30.374796, "Lon": -97.672326 }, "geometry": { "type": "Point", "coordinates": [ -97.6723257, 30.3747964 ] } },
{ "type": "Feature", "properties": { "Store": "East Side Social Club", "Address": "117 E. Oak St.", "City": "Denton", "State": "TX", "Zip": 76201, "Lat": 33.215748, "Lon": -97.131503 }, "geometry": { "type": "Point", "coordinates": [ -97.1315028, 33.2157479 ] } },
{ "type": "Feature", "properties": { "Store": "Echo Food Mart", "Address": "2020 East 7th Street", "City": "Austin", "State": "TX", "Zip": 78702, "Lat": 30.262027, "Lon": -97.718875 }, "geometry": { "type": "Point", "coordinates": [ -97.7188754, 30.2620265 ] } },
{ "type": "Feature", "properties": { "Store": "Emerald Tavern Games and Cafe", "Address": "9012 Research Blvd", "City": "Austin", "State": "TX", "Zip": 78758, "Lat": 30.371446, "Lon": -97.724509 }, "geometry": { "type": "Point", "coordinates": [ -97.724509, 30.3714463 ] } },
{ "type": "Feature", "properties": { "Store": "Epicerie", "Address": "2307 Hancock Drive", "City": "Austin", "State": "TX", "Zip": 78756, "Lat": 30.324526, "Lon": -97.743677 }, "geometry": { "type": "Point", "coordinates": [ -97.743677, 30.324526 ] } },
{ "type": "Feature", "properties": { "Store": "Exclusive Food", "Address": "16050 West Road", "City": "Houston", "State": "TX", "Zip": 77095, "Lat": 29.908146, "Lon": -95.648501 }, "geometry": { "type": "Point", "coordinates": [ -95.648501, 29.908146 ] } },
{ "type": "Feature", "properties": { "Store": "EZ Stop at Manor", "Address": "5029 Manor Rd", "City": "Austin", "State": "TX", "Zip": 78723, "Lat": 30.297605, "Lon": -97.686908 }, "geometry": { "type": "Point", "coordinates": [ -97.6869084, 30.2976054 ] } },
{ "type": "Feature", "properties": { "Store": "Faust Hotel", "Address": "240 S SEGUIN AVE", "City": "New Braunfels", "State": "TX", "Zip": 78130, "Lat": 29.701372, "Lon": -98.123036 }, "geometry": { "type": "Point", "coordinates": [ -98.1230358, 29.7013724 ] } },
{ "type": "Feature", "properties": { "Store": "Fillmore Pub", "Address": "1004 E. 15th St", "City": "Plano", "State": "TX", "Zip": 75074, "Lat": 33.019468, "Lon": -96.700341 }, "geometry": { "type": "Point", "coordinates": [ -96.700341, 33.019468 ] } },
{ "type": "Feature", "properties": { "Store": "Fire in the Hole", "Address": "103 E Main St", "City": "Round Rock", "State": "TX", "Zip": 78664, "Lat": 30.508370, "Lon": -97.678443 }, "geometry": { "type": "Point", "coordinates": [ -97.678443, 30.50837 ] } },
{ "type": "Feature", "properties": { "Store": "Flix Brewhouse", "Address": "2200 IH 35S Suite B1", "City": "Round Rock", "State": "TX", "Zip": 78681, "Lat": 30.488703, "Lon": -97.679906 }, "geometry": { "type": "Point", "coordinates": [ -97.6799061, 30.4887032 ] } },
{ "type": "Feature", "properties": { "Store": "Flying Saucer - Addison", "Address": "14999 Montfort Dr", "City": "Dallas", "State": "TX", "Zip": 75254, "Lat": 32.952864, "Lon": -96.818935 }, "geometry": { "type": "Point", "coordinates": [ -96.8189346, 32.9528639 ] } },
{ "type": "Feature", "properties": { "Store": "Flying Saucer - Austin", "Address": "815 W 47th St, Suite 103", "City": "Austin", "State": "TX", "Zip": 78751, "Lat": 30.315527, "Lon": -97.734102 }, "geometry": { "type": "Point", "coordinates": [ -97.7341016, 30.3155271 ] } },
{ "type": "Feature", "properties": { "Store": "Flying Saucer - Fort Worth", "Address": "111 E 3rd St", "City": "Fort Worth", "State": "TX", "Zip": 76102, "Lat": 32.755454, "Lon": -97.331255 }, "geometry": { "type": "Point", "coordinates": [ -97.331255, 32.7554537 ] } },
{ "type": "Feature", "properties": { "Store": "Flying Saucer - Houston", "Address": "705 Main St, Suite A", "City": "Houston", "State": "TX", "Zip": 77002, "Lat": 29.758893, "Lon": -95.363106 }, "geometry": { "type": "Point", "coordinates": [ -95.3631059, 29.7588934 ] } },
{ "type": "Feature", "properties": { "Store": "Flying Saucer - San Antonio", "Address": "11255 Huebner Road", "City": "San Antonio", "State": "TX", "Zip": 78230, "Lat": 29.546609, "Lon": -98.577466 }, "geometry": { "type": "Point", "coordinates": [ -98.5774663, 29.5466093 ] } },
{ "type": "Feature", "properties": { "Store": "Flying Saucer - Sugar Land", "Address": "15929 City Walk", "City": "Sugar Land", "State": "TX", "Zip": 77479, "Lat": 29.596987, "Lon": -95.620612 }, "geometry": { "type": "Point", "coordinates": [ -95.6206117, 29.5969874 ] } },
{ "type": "Feature", "properties": { "Store": "Fork & Vine", "Address": "PO Box 40699", "City": "Austin", "State": "TX", "Zip": 78704, "Lat": 30.267153, "Lon": -97.743061 }, "geometry": { "type": "Point", "coordinates": [ -97.7430608, 30.267153 ] } },
{ "type": "Feature", "properties": { "Store": "Fossil Creek - Western Cntr.", "Address": "1900 Western Center Blvd.", "City": "Fort Worth", "State": "TX", "Zip": 76131, "Lat": 32.861965, "Lon": -97.336351 }, "geometry": { "type": "Point", "coordinates": [ -97.3363512, 32.8619649 ] } },
{ "type": "Feature", "properties": { "Store": "Fresh Plus - Allandale", "Address": "2917 W Anderson Ln", "City": "Austin", "State": "TX", "Zip": 78757, "Lat": 30.358252, "Lon": -97.739098 }, "geometry": { "type": "Point", "coordinates": [ -97.7390975, 30.3582515 ] } },
{ "type": "Feature", "properties": { "Store": "Fresh Plus - Clarksville", "Address": "1221 W Lynn St", "City": "Austin", "State": "TX", "Zip": 78703, "Lat": 30.280825, "Lon": -97.758300 }, "geometry": { "type": "Point", "coordinates": [ -97.7583, 30.2808247 ] } },
{ "type": "Feature", "properties": { "Store": "Fresh Plus - Hyde Park", "Address": "408 E 43rd St", "City": "Austin", "State": "TX", "Zip": 78751, "Lat": 30.304880, "Lon": -97.726178 }, "geometry": { "type": "Point", "coordinates": [ -97.726178, 30.3048805 ] } },
{ "type": "Feature", "properties": { "Store": "Fresh Plus - San Gabriel", "Address": "2401 San Gabriel Street", "City": "Austin", "State": "TX", "Zip": 78705, "Lat": 30.288516, "Lon": -97.747464 }, "geometry": { "type": "Point", "coordinates": [ -97.7474639, 30.288516 ] } },
{ "type": "Feature", "properties": { "Store": "Fridaze Liquor", "Address": "130 Kirkham Circle Unit C", "City": "Kyle", "State": "TX", "Zip": 78640, "Lat": 30.012756, "Lon": -97.890014 }, "geometry": { "type": "Point", "coordinates": [ -97.8900142, 30.0127561 ] } },
{ "type": "Feature", "properties": { "Store": "Gabriel's San Marcos", "Address": "4200 IH35S Suite 100", "City": "San Marcos", "State": "TX", "Zip": 78666, "Lat": 29.827116, "Lon": -97.988427 }, "geometry": { "type": "Point", "coordinates": [ -97.9884265, 29.8271162 ] } },
{ "type": "Feature", "properties": { "Store": "Gabriel's Superstore", "Address": "1309 Loop 1604, # 109", "City": "San Antonio", "State": "TX", "Zip": 78258, "Lat": 29.219799, "Lon": -98.477235 }, "geometry": { "type": "Point", "coordinates": [ -98.477235, 29.2197994 ] } },
{ "type": "Feature", "properties": { "Store": "Garbo's Lobster Truck", "Address": "14735 Bratton Lane", "City": "Austin", "State": "TX", "Zip": 78728, "Lat": 30.446051, "Lon": -97.685363 }, "geometry": { "type": "Point", "coordinates": [ -97.685363, 30.4460515 ] } },
{ "type": "Feature", "properties": { "Store": "Gingerman - Plano", "Address": "7205 Bishop Rd", "City": "Plano", "State": "TX", "Zip": 75024, "Lat": 33.076717, "Lon": -96.821665 }, "geometry": { "type": "Point", "coordinates": [ -96.8216647, 33.0767166 ] } },
{ "type": "Feature", "properties": { "Store": "Gingerman - Southlake", "Address": "1512 E Southlake Blvd", "City": "Southlake", "State": "TX", "Zip": 76092, "Lat": 32.941265, "Lon": -97.128538 }, "geometry": { "type": "Point", "coordinates": [ -97.1285383, 32.9412651 ] } },
{ "type": "Feature", "properties": { "Store": "Good Dog Houston", "Address": "903 Studewood St", "City": "Houston", "State": "TX", "Zip": 77008, "Lat": 29.787512, "Lon": -95.387980 }, "geometry": { "type": "Point", "coordinates": [ -95.38798, 29.7875117 ] } },
{ "type": "Feature", "properties": { "Store": "Goodfriend", "Address": "1154 Peavy Rd", "City": "Dallas", "State": "TX", "Zip": 75218, "Lat": 32.839032, "Lon": -96.696524 }, "geometry": { "type": "Point", "coordinates": [ -96.696524, 32.8390322 ] } },
{ "type": "Feature", "properties": { "Store": "Goody Goody - Colleyville", "Address": "4701 Colleyville Blvd", "City": "Colleyville", "State": "TX", "Zip": 76034, "Lat": 32.878109, "Lon": -97.157207 }, "geometry": { "type": "Point", "coordinates": [ -97.157207, 32.878109 ] } },
{ "type": "Feature", "properties": { "Store": "Goody Goody Liquor #42", "Address": "7055 HWY 6 Suite B", "City": "Houston", "State": "TX", "Zip": 77095, "Lat": 29.880711, "Lon": -95.646716 }, "geometry": { "type": "Point", "coordinates": [ -95.6467162, 29.8807106 ] } },
{ "type": "Feature", "properties": { "Store": "Goody Goody Sugarland", "Address": "2680 HWY 6 South", "City": "Houston", "State": "TX", "Zip": 77082, "Lat": 29.730848, "Lon": -95.645094 }, "geometry": { "type": "Point", "coordinates": [ -95.645094, 29.730848 ] } },
{ "type": "Feature", "properties": { "Store": "Goody Goody- 41 Humble", "Address": "9805 FM 1960 Bypass", "City": "Humble", "State": "TX", "Zip": 77338, "Lat": 29.999540, "Lon": -95.174714 }, "geometry": { "type": "Point", "coordinates": [ -95.1747136, 29.9995398 ] } },
{ "type": "Feature", "properties": { "Store": "Gordon Street Tavern", "Address": "114 N Gordon St", "City": "Alvin", "State": "TX", "Zip": 77511, "Lat": 29.424211, "Lon": -95.243876 }, "geometry": { "type": "Point", "coordinates": [ -95.2438761, 29.4242113 ] } },
{ "type": "Feature", "properties": { "Store": "Graj Mahal", "Address": "73 Rainey St", "City": "Austin", "State": "TX", "Zip": 78701, "Lat": 30.258276, "Lon": -97.738647 }, "geometry": { "type": "Point", "coordinates": [ -97.738647, 30.258276 ] } },
{ "type": "Feature", "properties": { "Store": "Grandprize", "Address": "1010 Banks St", "City": "Houston", "State": "TX", "Zip": 77006, "Lat": 29.730376, "Lon": -95.391648 }, "geometry": { "type": "Point", "coordinates": [ -95.391648, 29.730376 ] } },
{ "type": "Feature", "properties": { "Store": "Grapevine Beer and Wine", "Address": "2150 W Northwest Hwy # 215", "City": "Grapevine", "State": "TX", "Zip": 76051, "Lat": 32.941807, "Lon": -97.099995 }, "geometry": { "type": "Point", "coordinates": [ -97.0999948, 32.9418072 ] } },
{ "type": "Feature", "properties": { "Store": "Greenhouse Craft Food", "Address": "1400 East Old Settlers Blvd", "City": "Round Rock", "State": "TX", "Zip": 78664, "Lat": 30.539281, "Lon": -97.670731 }, "geometry": { "type": "Point", "coordinates": [ -97.6707309, 30.5392807 ] } },
{ "type": "Feature", "properties": { "Store": "Growler's Beer & Wine Company", "Address": "1005 Waugh Drive", "City": "Houston", "State": "TX", "Zip": 77019, "Lat": 29.756401, "Lon": -95.397661 }, "geometry": { "type": "Point", "coordinates": [ -95.3976607, 29.7564007 ] } },
{ "type": "Feature", "properties": { "Store": "GS1221", "Address": "1221 Broadway, Suite 116", "City": "San Antonio", "State": "TX", "Zip": 78746, "Lat": 29.437487, "Lon": -98.479263 }, "geometry": { "type": "Point", "coordinates": [ -98.4792629, 29.4374866 ] } },
{ "type": "Feature", "properties": { "Store": "Hall's Grocery", "Address": "4200 Glade Rd", "City": "Colleyville", "State": "TX", "Zip": 76034, "Lat": 32.881691, "Lon": -97.100509 }, "geometry": { "type": "Point", "coordinates": [ -97.1005087, 32.8816909 ] } },
{ "type": "Feature", "properties": { "Store": "Hamrick's Market", "Address": "401 Cypress Creek Road, #100", "City": "Cedar Park", "State": "TX", "Zip": 78613, "Lat": 30.497680, "Lon": -97.820869 }, "geometry": { "type": "Point", "coordinates": [ -97.8208689, 30.4976804 ] } },
{ "type": "Feature", "properties": { "Store": "HandleBar", "Address": "121 East 5th Street", "City": "Austin", "State": "TX", "Zip": 78701, "Lat": 30.266554, "Lon": -97.742141 }, "geometry": { "type": "Point", "coordinates": [ -97.7421406, 30.2665542 ] } },
{ "type": "Feature", "properties": { "Store": "Hanover's Draught Haus", "Address": "108 E Main St", "City": "Pflugerville", "State": "TX", "Zip": 78660, "Lat": 30.440843, "Lon": -97.619597 }, "geometry": { "type": "Point", "coordinates": [ -97.6195965, 30.440843 ] } },
{ "type": "Feature", "properties": { "Store": "Hay Merchant", "Address": "1100 Westheimer Rd", "City": "Houston", "State": "TX", "Zip": 77006, "Lat": 29.744953, "Lon": -95.392986 }, "geometry": { "type": "Point", "coordinates": [ -95.3929859, 29.744953 ] } },
{ "type": "Feature", "properties": { "Store": "Haymaker", "Address": "2310 Manor RD", "City": "Austin", "State": "TX", "Zip": 78722, "Lat": 30.284800, "Lon": -97.717602 }, "geometry": { "type": "Point", "coordinates": [ -97.7176022, 30.2847997 ] } },
{ "type": "Feature", "properties": { "Store": "Hearsay", "Address": "218 Travis St", "City": "Houston", "State": "TX", "Zip": 77002, "Lat": 29.763046, "Lon": -95.361624 }, "geometry": { "type": "Point", "coordinates": [ -95.3616241, 29.7630462 ] } },
{ "type": "Feature", "properties": { "Store": "HEB #16 - Burleson", "Address": "165 NW John Jones Dr", "City": "Burleson", "State": "TX", "Zip": 76028, "Lat": 32.520568, "Lon": -97.352032 }, "geometry": { "type": "Point", "coordinates": [ -97.3520316, 32.5205676 ] } },
{ "type": "Feature", "properties": { "Store": "HEB Food Store #012", "Address": "18140 San Pedro", "City": "San Antonio", "State": "TX", "Zip": 78232, "Lat": 29.607196, "Lon": -98.467089 }, "geometry": { "type": "Point", "coordinates": [ -98.4670887, 29.6071964 ] } },
{ "type": "Feature", "properties": { "Store": "HEB Food Store #014", "Address": "5401 South FM 1626", "City": "Kyle", "State": "TX", "Zip": 78640, "Lat": 30.015660, "Lon": -97.863615 }, "geometry": { "type": "Point", "coordinates": [ -97.8636148, 30.0156598 ] } },
{ "type": "Feature", "properties": { "Store": "HEB Food Store #020", "Address": "24224 NW Freeway", "City": "Cypress", "State": "TX", "Zip": 77429, "Lat": 29.957596, "Lon": -95.673301 }, "geometry": { "type": "Point", "coordinates": [ -95.6733012, 29.9575956 ] } },
{ "type": "Feature", "properties": { "Store": "HEB Food Store #024", "Address": "11521 North FM 620", "City": "Austin", "State": "TX", "Zip": 78750, "Lat": 30.453928, "Lon": -97.825540 }, "geometry": { "type": "Point", "coordinates": [ -97.8255403, 30.4539276 ] } },
{ "type": "Feature", "properties": { "Store": "HEB Food Store #028", "Address": "2955 South Gulf Freeway", "City": "League City", "State": "TX", "Zip": 77573, "Lat": 29.466025, "Lon": -95.094296 }, "geometry": { "type": "Point", "coordinates": [ -95.094296, 29.4660254 ] } },
{ "type": "Feature", "properties": { "Store": "HEB Food Store #029", "Address": "701 South Capital of TX Hwy", "City": "West Lake Hills", "State": "TX", "Zip": 78746, "Lat": 30.290634, "Lon": -97.825827 }, "geometry": { "type": "Point", "coordinates": [ -97.8258265, 30.2906342 ] } },
{ "type": "Feature", "properties": { "Store": "HEB Food Store #031", "Address": "12860 US 183 South", "City": "Austin", "State": "TX", "Zip": 78750, "Lat": 30.478406, "Lon": -97.800296 }, "geometry": { "type": "Point", "coordinates": [ -97.800296, 30.4784063 ] } },
{ "type": "Feature", "properties": { "Store": "HEB Food Store #034", "Address": "3450 Gattis School Road", "City": "Round Rock", "State": "TX", "Zip": 78664, "Lat": 30.499272, "Lon": -97.615414 }, "geometry": { "type": "Point", "coordinates": [ -97.615414, 30.499272 ] } },
{ "type": "Feature", "properties": { "Store": "HEB Food Store #045", "Address": "2400 South Congress Avenue", "City": "Austin", "State": "TX", "Zip": 78704, "Lat": 30.238738, "Lon": -97.755151 }, "geometry": { "type": "Point", "coordinates": [ -97.755151, 30.238738 ] } },
{ "type": "Feature", "properties": { "Store": "HEB Food Store #048", "Address": "3025 N Dowlen Road", "City": "Beaumont", "State": "TX", "Zip": 77706, "Lat": 30.107998, "Lon": -94.168584 }, "geometry": { "type": "Point", "coordinates": [ -94.1685839, 30.1079976 ] } },
{ "type": "Feature", "properties": { "Store": "HEB Food Store #053", "Address": "24224 Northwest Freeway", "City": "Cypress", "State": "TX", "Zip": 77429, "Lat": 29.957596, "Lon": -95.673301 }, "geometry": { "type": "Point", "coordinates": [ -95.6733012, 29.9575956 ] } },
{ "type": "Feature", "properties": { "Store": "HEB Food Store #054", "Address": "9828 BLACKHAWK BOULEVARD", "City": "HOUSTON", "State": "TX", "Zip": 77075, "Lat": 29.601993, "Lon": -95.249578 }, "geometry": { "type": "Point", "coordinates": [ -95.2495778, 29.601993 ] } },
{ "type": "Feature", "properties": { "Store": "HEB Food Store #063", "Address": "FM 518 -  2805 Business Center Dr.", "City": "Pearland", "State": "TX", "Zip": 77581, "Lat": 29.559243, "Lon": -95.390413 }, "geometry": { "type": "Point", "coordinates": [ -95.3904128, 29.5592426 ] } },
{ "type": "Feature", "properties": { "Store": "HEB Food Store #068", "Address": "5800 West Slaughter Lane", "City": "Austin", "State": "TX", "Zip": 78749, "Lat": 30.201622, "Lon": -97.876837 }, "geometry": { "type": "Point", "coordinates": [ -97.8768375, 30.2016222 ] } },
{ "type": "Feature", "properties": { "Store": "HEB Food Store #091", "Address": "2508 East Riverside Drive", "City": "Austin", "State": "TX", "Zip": 78741, "Lat": 30.236590, "Lon": -97.722286 }, "geometry": { "type": "Point", "coordinates": [ -97.7222856, 30.2365895 ] } },
{ "type": "Feature", "properties": { "Store": "HEB Food Store #096", "Address": "7025 Village Center Drive", "City": "Austin", "State": "TX", "Zip": 78731, "Lat": 30.407377, "Lon": -97.668084 }, "geometry": { "type": "Point", "coordinates": [ -97.6680844, 30.4073773 ] } },
{ "type": "Feature", "properties": { "Store": "HEB Food Store #099", "Address": "10919 Louetta Road", "City": "Houston", "State": "TX", "Zip": 77070, "Lat": 29.995290, "Lon": -95.575699 }, "geometry": { "type": "Point", "coordinates": [ -95.5756992, 29.9952905 ] } },
{ "type": "Feature", "properties": { "Store": "HEB Food Store #102", "Address": "8503 NW Military Hwy", "City": "San Antonio", "State": "TX", "Zip": 78230, "Lat": 29.554548, "Lon": -98.533776 }, "geometry": { "type": "Point", "coordinates": [ -98.533776, 29.5545481 ] } },
{ "type": "Feature", "properties": { "Store": "HEB Food Store #108", "Address": "20935 US Highway 281 North", "City": "San Antonio", "State": "TX", "Zip": 78258, "Lat": 29.641142, "Lon": -98.457268 }, "geometry": { "type": "Point", "coordinates": [ -98.457268, 29.641142 ] } },
{ "type": "Feature", "properties": { "Store": "HEB Food Store #109", "Address": "9710 Katy Freeway", "City": "Houston", "State": "TX", "Zip": 77055, "Lat": 29.786639, "Lon": -95.531909 }, "geometry": { "type": "Point", "coordinates": [ -95.531909, 29.7866391 ] } },
{ "type": "Feature", "properties": { "Store": "HEB Food Store #110", "Address": "8900 Highway 6", "City": "Missouri City", "State": "TX", "Zip": 77459, "Lat": 29.537028, "Lon": -95.536439 }, "geometry": { "type": "Point", "coordinates": [ -95.5364386, 29.537028 ] } },
{ "type": "Feature", "properties": { "Store": "HEB Food Store #202", "Address": "5808 Burnet Road", "City": "Austin", "State": "TX", "Zip": 78756, "Lat": 30.334390, "Lon": -97.740932 }, "geometry": { "type": "Point", "coordinates": [ -97.740932, 30.3343897 ] } },
{ "type": "Feature", "properties": { "Store": "HEB Food Store #218", "Address": "12407 N MO Pac Expy", "City": "Austin", "State": "TX", "Zip": 78758, "Lat": 30.378470, "Lon": -97.736400 }, "geometry": { "type": "Point", "coordinates": [ -97.7363998, 30.3784702 ] } },
{ "type": "Feature", "properties": { "Store": "HEB Food Store #227", "Address": "2110 W Slaughter Ln", "City": "Austin", "State": "TX", "Zip": 78748, "Lat": 30.174851, "Lon": -97.825272 }, "geometry": { "type": "Point", "coordinates": [ -97.8252716, 30.1748508 ] } },
{ "type": "Feature", "properties": { "Store": "HEB Food Store #269", "Address": "10710 Research Blvd. Ste. 200", "City": "Austin", "State": "TX", "Zip": 78759, "Lat": 30.398613, "Lon": -97.749155 }, "geometry": { "type": "Point", "coordinates": [ -97.7491547, 30.3986129 ] } },
{ "type": "Feature", "properties": { "Store": "HEB Food Store #372", "Address": "1955 Nacogdoches Rd", "City": "San Antonio", "State": "TX", "Zip": 78209, "Lat": 29.507535, "Lon": -98.458492 }, "geometry": { "type": "Point", "coordinates": [ -98.4584916, 29.5075349 ] } },
{ "type": "Feature", "properties": { "Store": "HEB Food Store #373", "Address": "16900 RR 620 N", "City": "Round Rock", "State": "TX", "Zip": 78664, "Lat": 33.095045, "Lon": -96.622359 }, "geometry": { "type": "Point", "coordinates": [ -96.6223591, 33.0950455 ] } },
{ "type": "Feature", "properties": { "Store": "HEB Food Store #388", "Address": "6001 West Parmer Lane", "City": "Austin", "State": "TX", "Zip": 78727, "Lat": 30.441386, "Lon": -97.742566 }, "geometry": { "type": "Point", "coordinates": [ -97.742566, 30.4413858 ] } },
{ "type": "Feature", "properties": { "Store": "HEB Food Store #395", "Address": "12777 IH 10 West", "City": "San Antonio", "State": "TX", "Zip": 78230, "Lat": 29.485594, "Lon": -98.231626 }, "geometry": { "type": "Point", "coordinates": [ -98.2316264, 29.4855942 ] } },
{ "type": "Feature", "properties": { "Store": "HEB Food Store #397", "Address": "18140 San Pedro Avenue", "City": "San Antonio", "State": "TX", "Zip": 78232, "Lat": 29.607196, "Lon": -98.467089 }, "geometry": { "type": "Point", "coordinates": [ -98.4670887, 29.6071964 ] } },
{ "type": "Feature", "properties": { "Store": "HEB Food Store #404", "Address": "12400 West Hwy 71", "City": "Bee Cave", "State": "TX", "Zip": 78733, "Lat": 30.304357, "Lon": -97.932148 }, "geometry": { "type": "Point", "coordinates": [ -97.932148, 30.304357 ] } },
{ "type": "Feature", "properties": { "Store": "HEB Food Store #425", "Address": "1000 East 41st Street", "City": "Austin", "State": "TX", "Zip": 78751, "Lat": 30.300543, "Lon": -97.719630 }, "geometry": { "type": "Point", "coordinates": [ -97.7196298, 30.3005428 ] } },
{ "type": "Feature", "properties": { "Store": "HEB Food Store #428", "Address": "6900 Brodie Lane", "City": "Austin", "State": "TX", "Zip": 78745, "Lat": 30.216404, "Lon": -97.831202 }, "geometry": { "type": "Point", "coordinates": [ -97.8312024, 30.216404 ] } },
{ "type": "Feature", "properties": { "Store": "HEB Food Store #451", "Address": "7301 N FM 620", "City": "Austin", "State": "TX", "Zip": 78726, "Lat": 30.404602, "Lon": -97.851721 }, "geometry": { "type": "Point", "coordinates": [ -97.8517211, 30.4046024 ] } },
{ "type": "Feature", "properties": { "Store": "HEB Food Store #463", "Address": "1150 NW Loop 1604", "City": "San Antonio", "State": "TX", "Zip": 78248, "Lat": 29.219814, "Lon": -98.480085 }, "geometry": { "type": "Point", "coordinates": [ -98.4800853, 29.2198145 ] } },
{ "type": "Feature", "properties": { "Store": "HEB Food Store #465", "Address": "2701 East 7th Street", "City": "Austin", "State": "TX", "Zip": 78702, "Lat": 30.259213, "Lon": -97.711527 }, "geometry": { "type": "Point", "coordinates": [ -97.7115268, 30.2592128 ] } },
{ "type": "Feature", "properties": { "Store": "HEB Food Store #472", "Address": "2660 Fountainview Dr.", "City": "Houston", "State": "TX", "Zip": 77057, "Lat": 29.738415, "Lon": -95.486013 }, "geometry": { "type": "Point", "coordinates": [ -95.4860131, 29.7384153 ] } },
{ "type": "Feature", "properties": { "Store": "HEB Food Store #473", "Address": "6210 Fairmont Parkway", "City": "Pasadena", "State": "TX", "Zip": 77505, "Lat": 29.648662, "Lon": -95.144437 }, "geometry": { "type": "Point", "coordinates": [ -95.1444366, 29.6486616 ] } },
{ "type": "Feature", "properties": { "Store": "HEB Food Store #474", "Address": "4727 Highway 6", "City": "Missouri City", "State": "TX", "Zip": 77459, "Lat": 29.580323, "Lon": -95.582418 }, "geometry": { "type": "Point", "coordinates": [ -95.5824175, 29.5803229 ] } },
{ "type": "Feature", "properties": { "Store": "HEB Food Store #476", "Address": "500 West Canyon Ridge Drive", "City": "Austin", "State": "TX", "Zip": 78753, "Lat": 30.405370, "Lon": -97.671738 }, "geometry": { "type": "Point", "coordinates": [ -97.6717375, 30.40537 ] } },
{ "type": "Feature", "properties": { "Store": "HEB Food Store #479", "Address": "201 Farm to Market Road 685", "City": "Pflugerville", "State": "TX", "Zip": 78660, "Lat": 30.437206, "Lon": -97.611494 }, "geometry": { "type": "Point", "coordinates": [ -97.6114939, 30.437206 ] } },
{ "type": "Feature", "properties": { "Store": "HEB Food Store #492", "Address": "1550 N Fry Rd", "City": "Katy", "State": "TX", "Zip": 77084, "Lat": 29.764791, "Lon": -95.716158 }, "geometry": { "type": "Point", "coordinates": [ -95.7161577, 29.7647914 ] } },
{ "type": "Feature", "properties": { "Store": "HEB Food Store #495", "Address": "603 Louis Henna", "City": "Round Rock", "State": "TX", "Zip": 78664, "Lat": 30.481691, "Lon": -97.659415 },